[
  {
    "name": "ARMILAN SAIRAALA, RAVINTOLA LOUNASKEIDAS",
    "address": "ARMILANKATU 44",
    "postal_code": "53100",
    "city": "LAPPEENRANTA",
    "www": "",
    "admin": "SAIMAAN TUKIPALVELUT OY",
    "admin_www": "",
    "lat": 61.05865509999999,
    "lng": 28.2111163
  },
  {
    "name": "ETELÄ-KARJALAN KESKUSSAIRAALA, RAVINTOLA VALTO",
    "address": "VALTO KÄKELÄN KATU 1",
    "postal_code": "53130",
    "city": "LAPPEENRANTA",
    "www": "",
    "admin": "SAIMAAN TUKIPALVELUT OY",
    "admin_www": "",
    "lat": 61.06472950000001,
    "lng": 28.2110962
  },
  {
    "name": "INDIANA CURRY (LUT)",
    "address": "SKINNARILANKATU 34",
    "postal_code": "53850",
    "city": "LAPPEENRANTA",
    "www": "",
    "admin": "ALYAN",
    "admin_www": "",
    "lat": 61.06456790000001,
    "lng": 28.093246
  },
  {
    "name": "RAVINTOLA LASERI",
    "address": "LASERKATU 6",
    "postal_code": "53850",
    "city": "LAPPEENRANTA",
    "www": "http://www.aalef.fi",
    "admin": "AALEF OY",
    "admin_www": "http://www.aalef.fi",
    "lat": 61.06220279999999,
    "lng": 28.0978899
  },
  {
    "name": "RAVINTOLA LUT BUFFET",
    "address": "SKINNARILANKATU 34",
    "postal_code": "53850",
    "city": "LAPPEENRANTA",
    "www": "",
    "admin": "KAMPUSRAVINTOLAT OY",
    "admin_www": "",
    "lat": 61.06456790000001,
    "lng": 28.093246
  },
  {
    "name": "RAVINTOLA SKINNARILA",
    "address": "SKINNARILANKATU 36",
    "postal_code": "53850",
    "city": "LAPPEENRANTA",
    "www": "",
    "admin": "KAMPUSRAVINTOLAT OY",
    "admin_www": "",
    "lat": 61.06741879999999,
    "lng": 28.0916685
  },
  {
    "name": "YLIOPPILASTALON RAVINTOLA",
    "address": "LASERKATU 10",
    "postal_code": "53850",
    "city": "LAPPEENRANTA",
    "www": "http://www.aalef.fi",
    "admin": "AALEF OY",
    "admin_www": "http://www.aalef.fi",
    "lat": 61.0634021,
    "lng": 28.0962
  },
  {
    "name": "EVENTTI (3533)",
    "address": "KIRKKOKATU 23",
    "postal_code": "60220",
    "city": "SEINÄJOKI",
    "www": "https://www.fazerfoodco.fi/",
    "admin": "FAZER FOOD SERVICES OY",
    "admin_www": "https://www.fazerfoodco.fi/",
    "lat": 62.8893818,
    "lng": 27.6865948
  },
  {
    "name": "RUOKASALI PIHLAJA",
    "address": "HANNEKSENRINNE 7",
    "postal_code": "60220",
    "city": "SEINÄJOKI",
    "www": "",
    "admin": "ETELÄ-POHJANMAAN SAIRAANHOITOP.KY",
    "admin_www": "",
    "lat": 62.7730221,
    "lng": 22.8241678
  },
  {
    "name": "RUOKASALI TROPPI",
    "address": "KOSKENALANTIE 16",
    "postal_code": "60220",
    "city": "SEINÄJOKI",
    "www": "",
    "admin": "ETELÄ-POHJANMAAN SAIRAANHOITOP.KY",
    "admin_www": "",
    "lat": 60.2105711,
    "lng": 24.9521426
  },
  {
    "name": "RUOKASALI VAAHTERA",
    "address": "HUHTALANTIE 53",
    "postal_code": "60220",
    "city": "SEINÄJOKI",
    "www": "",
    "admin": "ETELÄ-POHJANMAAN SAIRAANHOITOP.KY",
    "admin_www": "",
    "lat": 62.7706665,
    "lng": 22.8334526
  },
  {
    "name": "SEDU KOSKENALANTIE (FI419316)",
    "address": "KOSKENALANTIE 17",
    "postal_code": "60220",
    "city": "SEINÄJOKI",
    "www": "http://www.sodexo.fi",
    "admin": "SODEXO OY",
    "admin_www": "http://www.sodexo.fi",
    "lat": 62.7732442,
    "lng": 22.818492
  },
  {
    "name": "SEINÄJOEN AMK, FRAMI F (FI419310)",
    "address": "KAMPUSRANTA 11",
    "postal_code": "60320",
    "city": "SEINÄJOKI",
    "www": "http://www.sodexo.fi",
    "admin": "SODEXO OY",
    "admin_www": "http://www.sodexo.fi",
    "lat": 62.7896557,
    "lng": 22.8215794
  },
  {
    "name": "SEINÄJOEN AMK, KAMPUSTALO (FI419311)",
    "address": "KALEVANKATU 35",
    "postal_code": "60100",
    "city": "SEINÄJOKI",
    "www": "http://www.sodexo.fi",
    "admin": "SODEXO OY",
    "admin_www": "http://www.sodexo.fi",
    "lat": 62.7884592,
    "lng": 22.8257314
  },
  {
    "name": "RAVINTOLA LEIVÄNSYRJÄ",
    "address": "SAIRAALANTIE 4",
    "postal_code": "63700",
    "city": "ÄHTÄRI",
    "www": "",
    "admin": "ÄHTÄRIN KAUPUNKI, TEKNINEN OSASTO, ALUEKEITTIÖ",
    "admin_www": "",
    "lat": 63.0702774,
    "lng": 25.8531377
  },
  {
    "name": "KAMPUS. MIKKELIN YLIOPISTOKESKUS (0393)",
    "address": "LÖNNROTINKATU 5",
    "postal_code": "50100",
    "city": "MIKKELI",
    "www": "http://www.amica.fi/ravintolakampus",
    "admin": "FAZER FOOD SERVICES OY",
    "admin_www": "https://www.fazerfoodco.fi/",
    "lat": 60.1669239,
    "lng": 24.9397885
  },
  {
    "name": "MIKKELIN KESKUSSAIRAALA, RUOKAPALVELUT",
    "address": "PORRASSALMENKATU 35-37",
    "postal_code": "50100",
    "city": "MIKKELI",
    "www": "",
    "admin": "ETELÄ-SAVON SAIRAANHOITOPIIRIN KY",
    "admin_www": "",
    "lat": 61.6912379,
    "lng": 27.2768252
  },
  {
    "name": "MOISION SAIRAALAN HENKILÖKUNTARAVINTOLA",
    "address": "MOISIONTIE 10",
    "postal_code": "50520",
    "city": "MIKKELI",
    "www": "",
    "admin": "ETELÄ-SAVON SAIRAANHOITOPIIRIN KY",
    "admin_www": "",
    "lat": 61.6552566,
    "lng": 27.2774745
  },
  {
    "name": "RAVINTOLA DEXI",
    "address": "PATTERISTONKATU 3",
    "postal_code": "50100",
    "city": "MIKKELI",
    "www": "",
    "admin": "KAAKKOIS-SUOMEN AMMATTIKORKEAKOULU OY",
    "admin_www": "",
    "lat": 61.68021529999999,
    "lng": 27.2585182
  },
  {
    "name": "RAVINTOLA KASARMINA",
    "address": "PATTERISTONKATU 3 B-RAK.",
    "postal_code": "50100",
    "city": "MIKKELI",
    "www": "",
    "admin": "KAAKKOIS-SUOMEN AMMATTIKORKEAKOULU OY",
    "admin_www": "",
    "lat": 61.68021529999999,
    "lng": 27.2585182
  },
  {
    "name": "RAVINTOLA STADIUMI",
    "address": "RAVIRADANTIE 24",
    "postal_code": "50100",
    "city": "MIKKELI",
    "www": "",
    "admin": "KAAKKOIS-SUOMEN AMMATTIKORKEAKOULU OY",
    "admin_www": "",
    "lat": 61.7037196,
    "lng": 27.245412
  },
  {
    "name": "OPISKELIJARAVINTOLA VIIKUNA",
    "address": "HUVILAKATU 31",
    "postal_code": "76130",
    "city": "PIEKSÄMÄKI",
    "www": "http://www.sisop.fi",
    "admin": "KIRKKOPALVELUT RY, SEURAKUNTAOPISTO",
    "admin_www": "http://www.sisop.fi",
    "lat": 62.3031257,
    "lng": 27.1275609
  },
  {
    "name": "LOUNASRAVINTOLA SYDÄNYSTÄVÄ",
    "address": "KESKUSSAIRAALANTIE 6",
    "postal_code": "57120",
    "city": "SAVONLINNA",
    "www": "http://www.isshp.fi",
    "admin": "ITÄ-SAVON SAIRAANHOITOPIIRIN KUNTAYHTYMÄ",
    "admin_www": "http://www.isshp.fi",
    "lat": 61.8707428,
    "lng": 28.8595434
  },
  {
    "name": "RAVINTOLA KAARI",
    "address": "SAVONNIEMENKATU 6",
    "postal_code": "57100",
    "city": "SAVONLINNA",
    "www": "",
    "admin": "KAAKKOIS-SUOMEN AMMATTIKORKEAKOULU OY",
    "admin_www": "",
    "lat": 61.86575999999999,
    "lng": 28.8782024
  },
  {
    "name": "OPISKELIJARAVINTOLA FOX",
    "address": "KETUNPOLKU 1",
    "postal_code": "87100",
    "city": "KAJAANI",
    "www": "",
    "admin": "KAJAANIN KAUPUNKI, KAJAANIN MAMSELLI -LIIKELAITOS",
    "admin_www": "",
    "lat": 64.21699579999999,
    "lng": 27.7135032
  },
  {
    "name": "TUUPALAN KOULUN RUOKASALI",
    "address": "KAINUUNTIE 118",
    "postal_code": "88900",
    "city": "KUHMO",
    "www": "",
    "admin": "KUHMON KAUPUNKI",
    "admin_www": "",
    "lat": 64.12330460000001,
    "lng": 29.5094745
  },
  {
    "name": "APAJA",
    "address": "KESKUSKATU 11",
    "postal_code": "88600",
    "city": "SOTKAMO",
    "www": "",
    "admin": "SOTKAMON KUNTA",
    "admin_www": "",
    "lat": 62.7909418,
    "lng": 22.8374147
  },
  {
    "name": "VIRASTOTALON RUOKALA",
    "address": "KAUPPAKATU 20",
    "postal_code": "89600",
    "city": "SUOMUSSALMI",
    "www": "",
    "admin": "SUOMUSSALMEN KUNTA",
    "admin_www": "",
    "lat": 62.24195030000001,
    "lng": 25.7475759
  },
  {
    "name": "FORSSAN RUOKALA, KOSTHOLLI",
    "address": "WAHRENINKATU 11 E",
    "postal_code": "30100",
    "city": "FORSSA",
    "www": "http://www.hamk.fi",
    "admin": "HÄMEEN AMMATTIKORKEAKOULU OY",
    "admin_www": "http://www.hamk.fi",
    "lat": 60.8152337,
    "lng": 23.620981
  },
  {
    "name": "LOUNASRAVINTOLA SAHERA",
    "address": "URHEILUKENTÄNKATU 9",
    "postal_code": "30100",
    "city": "FORSSA",
    "www": "",
    "admin": "LOIMIJOEN KUNTAPALVELUT OY",
    "admin_www": "",
    "lat": 60.82117170000001,
    "lng": 23.637786
  },
  {
    "name": "LEPAAN RUOKALA, ANNA",
    "address": "LEPAANTIE 129",
    "postal_code": "14610",
    "city": "LEPAA",
    "www": "http://www.hamk.fi",
    "admin": "HÄMEEN AMMATTIKORKEAKOULU OY",
    "admin_www": "http://www.hamk.fi",
    "lat": 61.1172169,
    "lng": 24.3259491
  },
  {
    "name": "EVON RUOKALA",
    "address": "SAARELANTIE 1",
    "postal_code": "16970",
    "city": "EVO",
    "www": "http://www.hamk.fi",
    "admin": "HÄMEEN AMMATTIKORKEAKOULU OY",
    "admin_www": "http://www.hamk.fi",
    "lat": 61.1964537,
    "lng": 25.1076416
  },
  {
    "name": "HAMK VISAMÄKI",
    "address": "VANKANLÄHDE 11",
    "postal_code": "13500",
    "city": "HÄMEENLINNA",
    "www": "http://www.sodexo.fi",
    "admin": "SODEXO OY",
    "admin_www": "http://www.sodexo.fi",
    "lat": 60.97644179999999,
    "lng": 24.4812921
  },
  {
    "name": "LAMMIN BIOLOGINEN ASEMA",
    "address": "PÄÄJÄRVENTIE 320",
    "postal_code": "16900",
    "city": "LAMMI",
    "www": "http://www.helsinki.fi/ml/lammi/",
    "admin": "HELSINGIN YLIOPISTO",
    "admin_www": "",
    "lat": 61.0540484,
    "lng": 25.0372932
  },
  {
    "name": "SAIRAALAN KEITTIÖ HÄMEENLINNA",
    "address": "AHVENISTONTIE 20",
    "postal_code": "13530",
    "city": "HÄMEENLINNA",
    "www": "",
    "admin": "PALMIA OY",
    "admin_www": "",
    "lat": 60.989628,
    "lng": 24.4147498
  },
  {
    "name": "SAIRAALAN KEITTIÖ RIIHIMÄKI",
    "address": "KONTI0NTIE 77",
    "postal_code": "11120",
    "city": "RIIHIMÄKI",
    "www": "",
    "admin": "PALMIA OY",
    "admin_www": "",
    "lat": 60.7459296,
    "lng": 24.743272
  },
  {
    "name": "SODEXO KAHVILA JA RAVINTOLA ROBOTTI",
    "address": "KAARTOKATU 2",
    "postal_code": "11100",
    "city": "RIIHIMÄKI",
    "www": "http://www.sodexo.fi",
    "admin": "SODEXO OY",
    "admin_www": "http://www.sodexo.fi",
    "lat": 60.73391179999999,
    "lng": 24.760497
  },
  {
    "name": "MUSTIALAN RUOKALA, HUTTULA",
    "address": "HUTTULANTIE 3",
    "postal_code": "31310",
    "city": "MUSTIALA",
    "www": "http://www.hamk.fi",
    "admin": "HÄMEEN AMMATTIKORKEAKOULU OY",
    "admin_www": "http://www.hamk.fi",
    "lat": 60.1957612,
    "lng": 24.9571036
  },
  {
    "name": "CENTRIA AMK",
    "address": "TALONPOJANKATU 2",
    "postal_code": "67100",
    "city": "KOKKOLA",
    "www": "",
    "admin": "SODEXO OY",
    "admin_www": "http://www.sodexo.fi",
    "lat": 63.8337336,
    "lng": 23.1608642
  },
  {
    "name": "LOUNASRAVINTOLA KIPPO",
    "address": "MARIANKATU 16-20",
    "postal_code": "67200",
    "city": "KOKKOLA",
    "www": "",
    "admin": "KESKI-POHJANMAAN SOSIAALI- JA TERVEYSPALVELU KY SOITE",
    "admin_www": "",
    "lat": 63.8455757,
    "lng": 23.1140897
  },
  {
    "name": "AIMO (0350)",
    "address": "ASEKATU 3",
    "postal_code": "40100",
    "city": "JYVÄSKYLÄ",
    "www": "https://www.fazerfoodco.fi/aimo/",
    "admin": "FAZER FOOD SERVICES OY",
    "admin_www": "https://www.fazerfoodco.fi/",
    "lat": 62.24775119999999,
    "lng": 25.7645696
  },
  {
    "name": "ALKIO-OPISTON OPISKELIJARAVINTOLA SANTERI",
    "address": "TÄHTINIEMENTIE 26",
    "postal_code": "41800",
    "city": "KORPILAHTI",
    "www": "",
    "admin": "ALKIO-OPISTON KANNATUSYHDISTYS RY",
    "admin_www": "",
    "lat": 62.0103168,
    "lng": 25.5528089
  },
  {
    "name": "FIILU (3364)",
    "address": "PIIPPUKATU 11",
    "postal_code": "40100",
    "city": "JYVÄSKYLÄ",
    "www": "https://www.fazerfoodco.fi/fiilu/",
    "admin": "FAZER FOOD SERVICES OY",
    "admin_www": "https://www.fazerfoodco.fi/",
    "lat": 62.2408879,
    "lng": 25.7570866
  },
  {
    "name": "JAMK RAVINTOLA DYNAMO (FI719348)",
    "address": "PIIPPUKATU 2-3",
    "postal_code": "40100",
    "city": "JYVÄSKYLÄ",
    "www": "http://www.sodexo.fi",
    "admin": "SODEXO OY",
    "admin_www": "http://www.sodexo.fi",
    "lat": 62.2417018,
    "lng": 25.7594951
  },
  {
    "name": "JAMK RAVINTOLA PÄÄKAMPUS (FI719345)",
    "address": "RAJAKATU 35",
    "postal_code": "40200",
    "city": "JYVÄSKYLÄ",
    "www": "http://www.sodexo.fi",
    "admin": "SODEXO OY",
    "admin_www": "http://www.sodexo.fi",
    "lat": 62.25134629999999,
    "lng": 25.7433091
  },
  {
    "name": "JAMK RAVINTOLA RAJACAFE (FI719346)",
    "address": "RAJAKATU 35",
    "postal_code": "40200",
    "city": "JYVÄSKYLÄ",
    "www": "http://www.sodexo.fi",
    "admin": "SODEXO OY",
    "admin_www": "http://www.sodexo.fi",
    "lat": 62.25134629999999,
    "lng": 25.7433091
  },
  {
    "name": "KAHVILA KVARKKI",
    "address": "SURVONTIE 9 YK-RAK.",
    "postal_code": "40500",
    "city": "JYVÄSKYLÄ",
    "www": "http://www.semma.fi",
    "admin": "SEMMA OY",
    "admin_www": "http://www.semma.fi",
    "lat": 62.2295345,
    "lng": 25.7399721
  },
  {
    "name": "KAHVILA-RAVINTOLA CATERINA",
    "address": "KESKUSSAIRAALANTIE 19",
    "postal_code": "40620",
    "city": "JYVÄSKYLÄ",
    "www": "",
    "admin": "JYVÄSKYLÄN KAUPUNKI KYLÄN KATTAUS -LIIKELAITOS",
    "admin_www": "",
    "lat": 62.2294311,
    "lng": 25.710736
  },
  {
    "name": "KATRIINAN KASVISRAVINTOLA",
    "address": "KAUPPAKATU 11",
    "postal_code": "40100",
    "city": "JYVÄSKYLÄ",
    "www": "",
    "admin": "SAARIJÄRVI MISPELI OY",
    "admin_www": "",
    "lat": "",
    "lon": ""
  },
  {
    "name": "LOUNASRAVINTOLA ILOKIVI",
    "address": "KESKUSSAIRAALANTIE 2",
    "postal_code": "40600",
    "city": "JYVÄSKYLÄ",
    "www": "http://www.ilokivi.fi",
    "admin": "JYVÄSKYLÄN YLIOPISTON YLIOPPILASKUNTA",
    "admin_www": "http://www.co.jyu.fi/~jyy",
    "lat": 62.23416769999999,
    "lng": 25.7287721
  },
  {
    "name": "OPISKELIJAKAHVILA SYKE",
    "address": "KESKUSSAIRAALANTIE 4 L-RAK.",
    "postal_code": "40600",
    "city": "JYVÄSKYLÄ",
    "www": "http://www.semma.fi",
    "admin": "SEMMA OY",
    "admin_www": "http://www.semma.fi",
    "lat": 62.2346216,
    "lng": 25.7285428
  },
  {
    "name": "RAVINTOLA LIBRI",
    "address": "SEMINAARINKATU 15 B-RAK.",
    "postal_code": "40100",
    "city": "JYVÄSKYLÄ",
    "www": "http://www.semma.fi",
    "admin": "SEMMA OY",
    "admin_www": "http://www.semma.fi",
    "lat": 62.2357132,
    "lng": 25.7338522
  },
  {
    "name": "RAVINTOLA LOZZI",
    "address": "KESKUSSAIRAALANTIE 4 (P-RAK.)",
    "postal_code": "40600",
    "city": "JYVÄSKYLÄ",
    "www": "http://www.semma.fi",
    "admin": "SEMMA OY",
    "admin_www": "http://www.semma.fi",
    "lat": 62.2346216,
    "lng": 25.7285428
  },
  {
    "name": "RAVINTOLA MAIJA",
    "address": "AHLMANINKATU 2 (MA A-RAK.)",
    "postal_code": "40100",
    "city": "JYVÄSKYLÄ",
    "www": "http://www.semma.fi",
    "admin": "SEMMA OY",
    "admin_www": "http://www.semma.fi",
    "lat": 62.23173329999999,
    "lng": 25.7354146
  },
  {
    "name": "RAVINTOLA PIATO",
    "address": "MATTILANNIEMI 2",
    "postal_code": "40100",
    "city": "JYVÄSKYLÄ",
    "www": "http://www.semma.fi",
    "admin": "SEMMA OY",
    "admin_www": "http://www.semma.fi",
    "lat": 62.2320331,
    "lng": 25.7364151
  },
  {
    "name": "RAVINTOLA TILIA",
    "address": "SEMINAARINKATU 15 T-RAK.",
    "postal_code": "40100",
    "city": "JYVÄSKYLÄ",
    "www": "http://www.semma.fi",
    "admin": "SEMMA OY",
    "admin_www": "http://www.semma.fi",
    "lat": 61.132181,
    "lng": 21.4975581
  },
  {
    "name": "RAVINTOLA UNO",
    "address": "ALVAR AALLON KATU 9",
    "postal_code": "40600",
    "city": "JYVÄSKYLÄ",
    "www": "http://www.semma.fi",
    "admin": "SEMMA OY",
    "admin_www": "http://www.semma.fi",
    "lat": 60.4996355,
    "lng": 26.9549481
  },
  {
    "name": "RAVINTOLA YLISTÖ",
    "address": "SURVONTIE 9 YFL-RAK.",
    "postal_code": "40500",
    "city": "JYVÄSKYLÄ",
    "www": "http://www.semma.fi",
    "admin": "SEMMA OY",
    "admin_www": "http://www.semma.fi",
    "lat": 62.2295345,
    "lng": 25.7399721
  },
  {
    "name": "RENTUKKA",
    "address": "TAITONIEKANTIE 9",
    "postal_code": "40740",
    "city": "JYVÄSKYLÄ",
    "www": "http://www.semma.fi",
    "admin": "SEMMA OY",
    "admin_www": "http://www.semma.fi",
    "lat": 62.2478765,
    "lng": 25.7107678
  },
  {
    "name": "SILTAVOUTI (0321)",
    "address": "MATARANKATU 4",
    "postal_code": "40100",
    "city": "JYVÄSKYLÄ",
    "www": "http://www.amica.fi/siltavouti",
    "admin": "FAZER FOOD SERVICES OY",
    "admin_www": "https://www.fazerfoodco.fi/",
    "lat": 62.2482426,
    "lng": 25.7586571
  },
  {
    "name": "KONNEVEDEN TUTKIMUSASEMA",
    "address": "SIRKKAMÄENTIE 220",
    "postal_code": "44300",
    "city": "KONNEVESI",
    "www": "",
    "admin": "JYVÄSKYLÄN YLIOPISTO",
    "admin_www": "",
    "lat": 62.6160726,
    "lng": 26.3453466
  },
  {
    "name": "RUUSALIISAN RUOKASALI",
    "address": "MAIJANKUJA 2",
    "postal_code": "44300",
    "city": "KONNEVESI",
    "www": "",
    "admin": "KONNEVEDEN KUNTA, RAVINTOPALVELUT",
    "admin_www": "",
    "lat": 62.62864930000001,
    "lng": 26.2873041
  },
  {
    "name": "RUOKALA TÄHKÄ",
    "address": "UURAISTENTIE 240",
    "postal_code": "43130",
    "city": "TARVAALA",
    "www": "http://www.poke.fi",
    "admin": "ÄÄNEKOSKEN AMMATILLISEN KOULUTUKSEN KY",
    "admin_www": "http://www.poke.fi",
    "lat": 62.6668652,
    "lng": 25.3083442
  },
  {
    "name": "RAVINTOLA JUNNU",
    "address": "PÄÄSKYSENTIE 1",
    "postal_code": "48220",
    "city": "KOTKA",
    "www": "",
    "admin": "KAAKKOIS-SUOMEN AMMATTIKORKEAKOULU OY",
    "admin_www": "",
    "lat": 60.487358,
    "lng": 26.8925584
  },
  {
    "name": "KASARMIRAVINTOLA (3548)",
    "address": "PARAATIKENTTÄ 5",
    "postal_code": "45100",
    "city": "KOUVOLA",
    "www": "https://www.fazerfoodco.fi/kasarmiravintola",
    "admin": "FAZER FOOD SERVICES OY",
    "admin_www": "https://www.fazerfoodco.fi/",
    "lat": 60.8736056,
    "lng": 26.6808908
  },
  {
    "name": "RAVINTOLA PAJA",
    "address": "KUUSELANKATU 1",
    "postal_code": "45100",
    "city": "KOUVOLA",
    "www": "",
    "admin": "KAAKKOIS-SUOMEN AMMATTIKORKEAKOULU OY",
    "admin_www": "",
    "lat": 60.4861505,
    "lng": 25.0844387
  },
  {
    "name": "KILPISJÄRVEN BIOLOGINEN ASEMA",
    "address": "KÄSIVARRENTIE 14622",
    "postal_code": "99490",
    "city": "KILPISJÄRVI",
    "www": "",
    "admin": "HELSINGIN YLIOPISTO",
    "admin_www": "",
    "lat": 69.0438447,
    "lng": 20.8026808
  },
  {
    "name": "HENKILÖSTÖRAVINTOLA MERI",
    "address": "KAUPPAKATU 25",
    "postal_code": "94100",
    "city": "KEMI",
    "www": "http://www.kemi.fi",
    "admin": "MERI-LAPIN KUNTAPALVELUT LLKY",
    "admin_www": "http://www.kemi.fi",
    "lat": 64.2275898,
    "lng": 27.7280273
  },
  {
    "name": "RAVINTOLA AURINKO",
    "address": "TIETOKATU 1",
    "postal_code": "94600",
    "city": "KEMI",
    "www": "",
    "admin": "KEMI-TORNIONLAAKSON KOULUTUSKUNTAYHTYMÄ LAPPIA",
    "admin_www": "",
    "lat": 65.75360289999999,
    "lng": 24.5821279
  },
  {
    "name": "ALUEKEITTIÖ 1:N OPPILASRAVINTOLA",
    "address": "SEMINAARINKATU 10",
    "postal_code": "98120",
    "city": "KEMIJÄRVI",
    "www": "",
    "admin": "KEMIJÄRVEN KAUPUNKI, RUOKAPALVELU",
    "admin_www": "",
    "lat": 65.8510442,
    "lng": 24.1416895
  },
  {
    "name": "FELLI/ LAPIN YLIOPISTO (0602)",
    "address": "YLIOPISTONKATU 8",
    "postal_code": "96300",
    "city": "ROVANIEMI",
    "www": "http://www.fazerfoodco.fi/felli",
    "admin": "FAZER FOOD SERVICES OY",
    "admin_www": "https://www.fazerfoodco.fi/",
    "lat": 60.1697295,
    "lng": 24.9468479
  },
  {
    "name": "KAHVILA LOVISA",
    "address": "YLIOPISTONKATU 8",
    "postal_code": "96300",
    "city": "ROVANIEMI",
    "www": "",
    "admin": "LAPIN LYYLI OY",
    "admin_www": "",
    "lat": 60.1697295,
    "lng": 24.9468479
  },
  {
    "name": "KUUKKELI/ VIRASTOTALO ROVANIEMI (0601)",
    "address": "HALLITUSKATU 3 A",
    "postal_code": "96100",
    "city": "ROVANIEMI",
    "www": "http://www.fazerfoodco.fi/kuukkeli",
    "admin": "FAZER FOOD SERVICES OY",
    "admin_www": "https://www.fazerfoodco.fi/",
    "lat": 65.8439106,
    "lng": 24.1462001
  },
  {
    "name": "LAPIN KESKUSSAIRAALA",
    "address": "OUNASRINTEENTIE 22",
    "postal_code": "96400",
    "city": "ROVANIEMI",
    "www": "",
    "admin": "LAPIN SAIRAANHOITOPIIRIN KUNTAYHTYMÄ",
    "admin_www": "",
    "lat": 66.4918412,
    "lng": 25.7749389
  },
  {
    "name": "LAPIN YO:N HARJOITTELUKOULU LUMIKELLO (0603)",
    "address": "POHJOLANKATU 23",
    "postal_code": "96100",
    "city": "ROVANIEMI",
    "www": "https://www.fazerfoodco.fi/",
    "admin": "FAZER FOOD SERVICES OY",
    "admin_www": "https://www.fazerfoodco.fi/",
    "lat": 61.0583068,
    "lng": 28.198477
  },
  {
    "name": "LUMIKELLO/ LAPIN YLIOPISTO HARJOITTELUKOULU (0603)",
    "address": "POHJOLANKATU 23",
    "postal_code": "96100",
    "city": "ROVANIEMI",
    "www": "http://www.amica.fi/lumikello",
    "admin": "FAZER FOOD SERVICES OY",
    "admin_www": "https://www.fazerfoodco.fi/",
    "lat": 61.0583068,
    "lng": 28.198477
  },
  {
    "name": "OPISKELIJARAVINTOLA TEKUILA & TEKUILAN KAHVILA",
    "address": "JOKIVÄYLÄ 11",
    "postal_code": "96300",
    "city": "ROVANIEMI",
    "www": "http://www.redu.fi",
    "admin": "ROVANIEMEN KOULUTUSKUNTAYHTYMÄ",
    "admin_www": "http://www.redu.fi",
    "lat": 66.4814313,
    "lng": 25.7241388
  },
  {
    "name": "PSYKIATRIAN KLINIKAN HENKILÖSTÖRAVINTOLA",
    "address": "TOTONTIE 9",
    "postal_code": "97145",
    "city": "TOTONVAARA",
    "www": "",
    "admin": "LAPIN SAIRAANHOITOPIIRIN KUNTAYHTYMÄ",
    "admin_www": "",
    "lat": 66.37282680000001,
    "lng": 25.3726372
  },
  {
    "name": "RAVINTOLA PUHTI",
    "address": "HIIHTOMAJANTIE 2",
    "postal_code": "96400",
    "city": "ROVANIEMI",
    "www": "",
    "admin": "ROVANIEMEN KOULUTUSKUNTAYHTYMÄ",
    "admin_www": "http://www.redu.fi",
    "lat": 66.498156,
    "lng": 25.7649858
  },
  {
    "name": "RAVINTOLA PIKANTTI",
    "address": "URHEILUKATU 6",
    "postal_code": "95400",
    "city": "TORNIO",
    "www": "",
    "admin": "KEMI-TORNIONLAAKSON KOULUTUSKUNTAYHTYMÄ LAPPIA",
    "admin_www": "",
    "lat": 60.1849212,
    "lng": 24.9240876
  },
  {
    "name": "LAPIN TUTKIMUSLAITOS KEVO",
    "address": "KEVONTIE 470",
    "postal_code": "99980",
    "city": "UTSJOKI",
    "www": "",
    "admin": "TURUN YLIOPISTO",
    "admin_www": "",
    "lat": 69.7556616,
    "lng": 27.0099026
  },
  {
    "name": "HYYTIÄLÄN METSÄASEMA",
    "address": "HYYTIÄLÄNTIE 124",
    "postal_code": "35500",
    "city": "KORKEAKOSKI",
    "www": "http://www.honeybee.helsinki.fi/hyytiala/",
    "admin": "HELSINGIN YLIOPISTO",
    "admin_www": "",
    "lat": 61.8435229,
    "lng": 24.2889178
  },
  {
    "name": "MÄNTÄN SEUDUN KOULUTUSKESKUS",
    "address": "VIRTASALMENTIE 14",
    "postal_code": "35800",
    "city": "MÄNTTÄ",
    "www": "http://www.mantta.fi/mskk",
    "admin": "SASTAMALAN KOULUTUSKUNTAYHTYMÄ",
    "admin_www": "http://www.mantta.fi/mskk",
    "lat": 62.0330474,
    "lng": 24.6253414
  },
  {
    "name": "CAFÉ PINNI",
    "address": "KANSLERINRINNE 1",
    "postal_code": "33014",
    "city": "TAMPEREEN YLIOPISTO",
    "www": "http://www.juvenes.fi",
    "admin": "JUVENES OY",
    "admin_www": "http://www.juvenes.fi",
    "lat": 61.49346079999999,
    "lng": 23.7779331
  },
  {
    "name": "CAMPUSRAVITA OY",
    "address": "KUNTOKATU 3",
    "postal_code": "33520",
    "city": "TAMPERE",
    "www": "",
    "admin": "CAMPUSRAVITA OY",
    "admin_www": "",
    "lat": 61.5041038,
    "lng": 23.8089114
  },
  {
    "name": "FINN-MEDIN RAVINTOLA",
    "address": "ARVO YLPÖN KATU 6",
    "postal_code": "33520",
    "city": "TAMPERE",
    "www": "",
    "admin": "PIRKANMAAN KANSANTERVEYS RY",
    "admin_www": "",
    "lat": 61.5063737,
    "lng": 23.8126474
  },
  {
    "name": "KAMPUSAREENA/TAMPEREEN TEKNILLINEN YLIOPISTO(0810)",
    "address": "KORKEAKOULUNKATU 7",
    "postal_code": "33720",
    "city": "TAMPERE",
    "www": "http://www.fazerfoodco.fi/reaktori",
    "admin": "FAZER FOOD SERVICES OY",
    "admin_www": "https://www.fazerfoodco.fi/",
    "lat": 61.4498286,
    "lng": 23.8589986
  },
  {
    "name": "MIEKKALEIJONA",
    "address": "VAAJAKATU 2",
    "postal_code": "33720",
    "city": "TAMPERE",
    "www": "",
    "admin": "LEIJONA CATERING OY",
    "admin_www": "",
    "lat": 61.45426839999999,
    "lng": 23.8522105
  },
  {
    "name": "MINERVA/TAMPEREEN YLIOPISTO (0815)",
    "address": "KANSLERINRINNE 1 B",
    "postal_code": "33100",
    "city": "TAMPERE",
    "www": "http://www.fazerfoodco.fi/minerva",
    "admin": "FAZER FOOD SERVICES OY",
    "admin_www": "https://www.fazerfoodco.fi/",
    "lat": 61.49346079999999,
    "lng": 23.7779331
  },
  {
    "name": "PIRTERIA/TAMPEREEN AMMATTIKORKEAKOULU (0823)",
    "address": "KUNTOKATU 4",
    "postal_code": "33520",
    "city": "TAMPERE",
    "www": "http://www.amica.fi/pirteria",
    "admin": "FAZER FOOD SERVICES OY",
    "admin_www": "https://www.fazerfoodco.fi/",
    "lat": 61.50468730000001,
    "lng": 23.8100854
  },
  {
    "name": "RAVINTOLA ARVO JA CAFÉ LEA",
    "address": "ARVO YLPÖN KATU 34",
    "postal_code": "33520",
    "city": "TAMPERE",
    "www": "http://www.juvenes.fi",
    "admin": "JUVENES OY",
    "admin_www": "http://www.juvenes.fi",
    "lat": 61.50692989999999,
    "lng": 23.8230703
  },
  {
    "name": "RAVINTOLA HERTSI (FI419381)",
    "address": "KORKEAKOULUNKATU 1",
    "postal_code": "33720",
    "city": "TAMPERE",
    "www": "http://www.sodexo.fi",
    "admin": "SODEXO OY",
    "admin_www": "http://www.sodexo.fi",
    "lat": 61.44863139999999,
    "lng": 23.8549184
  },
  {
    "name": "RAVINTOLA LINNA(FI438868)",
    "address": "KALEVANTIE 5",
    "postal_code": "33100",
    "city": "TAMPERE",
    "www": "http://www.sodexo.fi",
    "admin": "SODEXO OY",
    "admin_www": "http://www.sodexo.fi",
    "lat": 61.4950845,
    "lng": 23.7778419
  },
  {
    "name": "RAVINTOLA LIVE JA CAFÉ ALL BRIGHT",
    "address": "TOHLOPINRANTA 31",
    "postal_code": "33270",
    "city": "TAMPERE",
    "www": "http://www.juvenes.fi",
    "admin": "JUVENES OY",
    "admin_www": "http://www.juvenes.fi",
    "lat": 61.5064927,
    "lng": 23.6482735
  },
  {
    "name": "RAVINTOLA MISTELI",
    "address": "TEISKONTIE 35, TAYS P-RAKENNUS",
    "postal_code": "33520",
    "city": "TAMPERE",
    "www": "",
    "admin": "PIRKANMAAN KANSANTERVEYS RY",
    "admin_www": "",
    "lat": 61.50595419999999,
    "lng": 23.8176452
  },
  {
    "name": "RAVINTOLA NEWTON JA CAFÉ KONEHUONE",
    "address": "KORKEAKOULUNKATU 6 A",
    "postal_code": "33720",
    "city": "TAMPERE",
    "www": "http://www.juvenes.fi",
    "admin": "JUVENES OY",
    "admin_www": "http://www.juvenes.fi",
    "lat": 61.4488941,
    "lng": 23.8587598
  },
  {
    "name": "RAVINTOLA PYYNIKKI",
    "address": "F.E. SILLANPÄÄNKATU 2",
    "postal_code": "33200",
    "city": "TAMPERE",
    "www": "",
    "admin": "CAMPUSRAVITA OY",
    "admin_www": "",
    "lat": 61.49655579999999,
    "lng": 23.7444559
  },
  {
    "name": "RESTAURANT FRENCKELL & PIHA",
    "address": "FRENCKELLINAUKIO 2 H",
    "postal_code": "33210",
    "city": "TAMPERE",
    "www": "http://www.juvenes.fi",
    "admin": "JUVENES OY",
    "admin_www": "http://www.juvenes.fi",
    "lat": 61.50020989999999,
    "lng": 23.7608759
  },
  {
    "name": "TAMPEREEN NORMAALIKOULUN (0811) ALAKOULUN JAKELUPISTE",
    "address": "LOUNAANTIE 2",
    "postal_code": "33800",
    "city": "TAMPERE",
    "www": "",
    "admin": "FAZER FOOD SERVICES OY",
    "admin_www": "https://www.fazerfoodco.fi/",
    "lat": 61.4835789,
    "lng": 23.7909588
  },
  {
    "name": "TAMPEREEN NORMAALIKOULUN RAVINTOLA (0811)",
    "address": "KUOKKAMAANTIE 16",
    "postal_code": "33800",
    "city": "TAMPERE",
    "www": "http://www.amica.fi/tampereennormaalikoulu",
    "admin": "FAZER FOOD SERVICES OY",
    "admin_www": "https://www.fazerfoodco.fi/",
    "lat": 61.4819036,
    "lng": 23.7946236
  },
  {
    "name": "YLIOPISTON RAVINTOLA, ALAKUPPILA, VEGESÅÅSBAR, TOIVO",
    "address": "KALEVANTIE 4",
    "postal_code": "33014",
    "city": "TAMPEREEN YLIOPISTO",
    "www": "http://www.juvenes.fi",
    "admin": "JUVENES OY",
    "admin_www": "http://www.juvenes.fi",
    "lat": 61.4942347,
    "lng": 23.7804113
  },
  {
    "name": "HAMK VALKEAKOSKI",
    "address": "TIETOTIE 1",
    "postal_code": "37630",
    "city": "VALKEAKOSKI",
    "www": "http://www.sodexo.fi",
    "admin": "SODEXO OY",
    "admin_www": "http://www.sodexo.fi",
    "lat": 60.1854888,
    "lng": 24.8204198
  },
  {
    "name": "KAHVILA SENTTI (0824)",
    "address": "TIETOTIE 1",
    "postal_code": "37630",
    "city": "VALKEAKOSKI",
    "www": "https://www.fazerfoodco.fi/",
    "admin": "FAZER FOOD SERVICES OY",
    "admin_www": "https://www.fazerfoodco.fi/",
    "lat": 60.1854888,
    "lng": 24.8204198
  },
  {
    "name": "SILMU. TAMPEREEN SEUDUN AMMATTIOPISTO TREDU (0829)",
    "address": "METSÄTIE 1",
    "postal_code": "34300",
    "city": "KURU",
    "www": "http://www.amica.fi/silmu",
    "admin": "FAZER FOOD SERVICES OY",
    "admin_www": "https://www.fazerfoodco.fi/",
    "lat": 60.6327845,
    "lng": 23.5273334
  },
  {
    "name": "ALLEGRO CAMPUS (3862)",
    "address": "KAUPPIAANKATU 10",
    "postal_code": "68600",
    "city": "PIETARSAARI",
    "www": "http://www.amica.fi/allegro",
    "admin": "FAZER FOOD SERVICES OY",
    "admin_www": "https://www.fazerfoodco.fi/",
    "lat": 60.16702009999999,
    "lng": 24.9675693
  },
  {
    "name": "CAFé TECHNO",
    "address": "BOMULLSGRÄND 3",
    "postal_code": "65200",
    "city": "VAASA",
    "www": "https://www.cafetechno.fi/fi/",
    "admin": "HUE & BER ÖB",
    "admin_www": "",
    "lat": "",
    "lon": ""
  },
  {
    "name": "CAFÉ ANN-MARI",
    "address": "PB 311, STRANDGATAN 2",
    "postal_code": "65101",
    "city": "VAASA",
    "www": "",
    "admin": "ISS PALVELUT OY/CATERING SERVICES",
    "admin_www": "",
    "lat": 58.4104894,
    "lng": 15.6315829
  },
  {
    "name": "CAFÉ HERMES/HANKEN (3567)",
    "address": "KAUPPAPUISTIKKO 2",
    "postal_code": "65100",
    "city": "VAASA",
    "www": "http://www.amica.fi/hermes",
    "admin": "FAZER FOOD SERVICES OY",
    "admin_www": "https://www.fazerfoodco.fi/",
    "lat": 63.0947518,
    "lng": 21.6160766
  },
  {
    "name": "CAFÉ OSKARI",
    "address": "YLIOPISTONRANTA 7",
    "postal_code": "65200",
    "city": "VAASA",
    "www": "http://www.juvenes.fi",
    "admin": "JUVENES OY",
    "admin_www": "http://www.juvenes.fi",
    "lat": 63.1028069,
    "lng": 21.5950411
  },
  {
    "name": "CAFÉ TECHNO",
    "address": "BOMULLSGRÄND 3",
    "postal_code": "65200",
    "city": "VAASA",
    "www": "",
    "admin": "ODEN HARBARD AB",
    "admin_www": "",
    "lat": "",
    "lon": ""
  },
  {
    "name": "PSYKIATRIAN YKSIKÖN RUOKASALI, VAASAN KESKUSSAIRAALA",
    "address": "SARJAKATU 2",
    "postal_code": "65320",
    "city": "VAASA",
    "www": "",
    "admin": "TEESE BOTNIA OY AB",
    "admin_www": "",
    "lat": 63.0885279,
    "lng": 21.681774
  },
  {
    "name": "RAVINTOLA ALERE JA CAFÉ ALERE",
    "address": "WOLFFINTIE 27-31",
    "postal_code": "65200",
    "city": "VAASA",
    "www": "http://www.juvenes.fi",
    "admin": "JUVENES OY",
    "admin_www": "http://www.juvenes.fi",
    "lat": 63.10699139999999,
    "lng": 21.5922782
  },
  {
    "name": "RAVINTOLA COTTON CLUB",
    "address": "YLIOPISTONRANTA 2",
    "postal_code": "65200",
    "city": "VAASA",
    "www": "",
    "admin": "OY VAASAN KLUBI RAVINTOLA",
    "admin_www": "",
    "lat": 62.8945687,
    "lng": 27.6418273
  },
  {
    "name": "RAVINTOLA ERKKI",
    "address": "YLIOPISTONRANTA 10",
    "postal_code": "65200",
    "city": "VAASA",
    "www": "http://www.juvenes.fi",
    "admin": "JUVENES OY",
    "admin_www": "http://www.juvenes.fi",
    "lat": 63.1035158,
    "lng": 21.5960405
  },
  {
    "name": "RAVINTOLA MATHILDA",
    "address": "WOLFFINTIE 34",
    "postal_code": "65200",
    "city": "VAASA",
    "www": "http://www.juvenes.fi",
    "admin": "JUVENES OY",
    "admin_www": "http://www.juvenes.fi",
    "lat": 63.1056914,
    "lng": 21.5940973
  },
  {
    "name": "RAVINTOLA SERVERI JA CAFÉ WOLFF´S STREET",
    "address": "WOLFFINTIE 30",
    "postal_code": "65200",
    "city": "VAASA",
    "www": "http://www.juvenes.fi",
    "admin": "JUVENES OY",
    "admin_www": "http://www.juvenes.fi",
    "lat": 63.1068864,
    "lng": 21.5917039
  },
  {
    "name": "RESTAURANG ALEXANDER",
    "address": "PB 311, STRANDGATAN 2",
    "postal_code": "65101",
    "city": "VAASA",
    "www": "",
    "admin": "ISS PALVELUT OY/CATERING SERVICES",
    "admin_www": "",
    "lat": 58.4104894,
    "lng": 15.6315829
  },
  {
    "name": "RESTAURANG W33",
    "address": "WOLFFSKAVÄGEN 33",
    "postal_code": "65200",
    "city": "VAASA",
    "www": "",
    "admin": "OY MIKAEL ORLO AB",
    "admin_www": "",
    "lat": 63.10543699999999,
    "lng": 21.5958961
  },
  {
    "name": "VAASAN KESKUSSAIRAALAN RUOKASALI",
    "address": "HIETALAHDENKATU 2-4",
    "postal_code": "65130",
    "city": "VAASA",
    "www": "",
    "admin": "TEESE BOTNIA OY AB",
    "admin_www": "",
    "lat": 63.0854113,
    "lng": 21.6125214
  },
  {
    "name": "CARELIA/ITÄ-SUOMEN YLIOPISTO (0417)",
    "address": "YLIOPISTOKATU 4",
    "postal_code": "80100",
    "city": "JOENSUU",
    "www": "http://www.fazerfoodco.fi/carelia",
    "admin": "FAZER FOOD SERVICES OY",
    "admin_www": "https://www.fazerfoodco.fi/",
    "lat": 65.05622439999999,
    "lng": 25.4725163
  },
  {
    "name": "JAKELUPISTE BOREALIS / ITÄ-SUOMEN OY (0423)",
    "address": "YLIOPISTOKATU 7",
    "postal_code": "80100",
    "city": "JOENSUU",
    "www": "https://www.fazerfoodco.fi/futura",
    "admin": "FAZER FOOD SERVICES OY",
    "admin_www": "https://www.fazerfoodco.fi/",
    "lat": 62.6046914,
    "lng": 29.7409607
  },
  {
    "name": "JAKELUPISTE FUTURA ITÄ-SUOMEN YO JOENSUUN KAMPUS (0420)",
    "address": "YLIOPISTOKATU 7",
    "postal_code": "80100",
    "city": "JOENSUU",
    "www": "http://www.fazerfoodco.fi/futura",
    "admin": "FAZER FOOD SERVICES OY",
    "admin_www": "https://www.fazerfoodco.fi/",
    "lat": 62.6046914,
    "lng": 29.7409607
  },
  {
    "name": "JAKELUPISTE JOENSUUN NORMAALIKOULU/LÄNSIKADUN KOULU",
    "address": "TULLIPORTINKATU 1 A",
    "postal_code": "80100",
    "city": "JOENSUU",
    "www": "",
    "admin": "FAZER FOOD SERVICES OY",
    "admin_www": "https://www.fazerfoodco.fi/",
    "lat": 62.89415760000001,
    "lng": 27.6938623
  },
  {
    "name": "OPISKELIJAKATU (0433) / ITÄ-SUOMEN YLIOPISTO, JOENSUU",
    "address": "OPISKELIJANKATU 7",
    "postal_code": "80130",
    "city": "JOENSUU",
    "www": "",
    "admin": "FAZER FOOD SERVICES OY",
    "admin_www": "https://www.fazerfoodco.fi/",
    "lat": 62.60605829999999,
    "lng": 29.7463409
  },
  {
    "name": "POHJOIS-KARJALAN OPISTON OPPILASRUOKALA, HERKKUKELLARI",
    "address": "NIITTYLAHDENTIE 297",
    "postal_code": "82220",
    "city": "NIITTYLAHTI",
    "www": "",
    "admin": "POHJOIS-KARJALAN KOULUTUSKUNTAYHTYMÄ",
    "admin_www": "",
    "lat": 62.50844649999999,
    "lng": 29.8237004
  },
  {
    "name": "RAVINTOLA ASKEL",
    "address": "KÄYNTIOS. NOLJAKANTIE 17 C/0 NISKAKATU 21, JOENSUU",
    "postal_code": "80130",
    "city": "JOENSUU",
    "www": "",
    "admin": "POLKKA, POHJOIS-KARJALAN TUKIPALVELUT OY,TIKKAMÄKI",
    "admin_www": "",
    "lat": 62.6158365,
    "lng": 29.7257784
  },
  {
    "name": "RAVINTOLA LOUHI",
    "address": "LÄNSIKATU 15",
    "postal_code": "80110",
    "city": "JOENSUU",
    "www": "",
    "admin": "HOTELLI JA RAVINTOLA AADA OY",
    "admin_www": "",
    "lat": 62.598008,
    "lng": 29.744207
  },
  {
    "name": "RAVINTOLA NATURA (0421)",
    "address": "YLIOPISTOKATU 4",
    "postal_code": "80100",
    "city": "JOENSUU",
    "www": "https://www.fazerfoodco.fi/",
    "admin": "FAZER FOOD SERVICES OY",
    "admin_www": "https://www.fazerfoodco.fi/",
    "lat": 65.05622439999999,
    "lng": 25.4725163
  },
  {
    "name": "RAVINTOLA POHJANTIKKA",
    "address": "TIKKAMÄENTIE 16",
    "postal_code": "80210",
    "city": "JOENSUU",
    "www": "",
    "admin": "POLKKA, POHJOIS-KARJALAN TUKIPALVELUT OY,TIKKAMÄKI",
    "admin_www": "",
    "lat": 62.591148,
    "lng": 29.7780133
  },
  {
    "name": "SOLINA KARELIA AMK TIKKARINTEEN KAMPUS (0424)",
    "address": "TIKKARINNE 9",
    "postal_code": "80200",
    "city": "JOENSUU",
    "www": "http://www.fazerfoodco.fi/solina",
    "admin": "FAZER FOOD SERVICES OY",
    "admin_www": "https://www.fazerfoodco.fi/",
    "lat": 62.5888295,
    "lng": 29.7790355
  },
  {
    "name": "TORI36/VIRASTOTALO JOENSUU (0401)",
    "address": "TORIKATU 36",
    "postal_code": "80100",
    "city": "JOENSUU",
    "www": "http://www.fazerfoodco.fi/tori36",
    "admin": "FAZER FOOD SERVICES OY",
    "admin_www": "https://www.fazerfoodco.fi/",
    "lat": 62.6056162,
    "lng": 29.7689014
  },
  {
    "name": "WIRE/KARELIA AMK WÄRTSILÄN KAMPUS (0447)",
    "address": "KARJALANKATU 3",
    "postal_code": "80200",
    "city": "JOENSUU",
    "www": "http://www.fazerfoodco.fi/wire",
    "admin": "FAZER FOOD SERVICES OY",
    "admin_www": "https://www.fazerfoodco.fi/",
    "lat": 62.59646850000001,
    "lng": 29.7782989
  },
  {
    "name": "KUUSAMO-OPISTO",
    "address": "KITKANTIE 35",
    "postal_code": "93600",
    "city": "KUUSAMO",
    "www": "http://www.kuusamo-opisto.fi",
    "admin": "KUUSAMO-OPISTON KANNATUSYHDISTYS RY",
    "admin_www": "http://www.kuusamo-opisto.fi",
    "lat": 65.96934759999999,
    "lng": 29.1801043
  },
  {
    "name": "OPPILASRAVINTOLA SALVIA",
    "address": "OULANGANTIE 1",
    "postal_code": "93600",
    "city": "KUUSAMO",
    "www": "",
    "admin": "KUUSAMON KAUPUNKI",
    "admin_www": "",
    "lat": 65.9630772,
    "lng": 29.1744244
  },
  {
    "name": "CARDIA. OULAISTEN TERVEYDENHUOLTO-OPPILAITOS (0233)",
    "address": "KUNTOTIE 2",
    "postal_code": "86300",
    "city": "OULAINEN",
    "www": "http://www.amica.fi/cardia",
    "admin": "FAZER FOOD SERVICES OY",
    "admin_www": "https://www.fazerfoodco.fi/",
    "lat": 66.4934267,
    "lng": 25.76772
  },
  {
    "name": "ALWARI OAMK KONTINKANKAAN KAMPUS (0226)",
    "address": "KIVIHARJUNTIE 8",
    "postal_code": "90220",
    "city": "OULU",
    "www": "http://www.amica.fi/alwari",
    "admin": "FAZER FOOD SERVICES OY",
    "admin_www": "https://www.fazerfoodco.fi/",
    "lat": 65.00862409999999,
    "lng": 25.5121223
  },
  {
    "name": "CAFé HUB",
    "address": "PENTTI KAITERAN KATU 1, OVI T",
    "postal_code": "90014",
    "city": "OULUN YLIOPISTO",
    "www": "http://www.juvenes.fi",
    "admin": "JUVENES OY",
    "admin_www": "http://www.juvenes.fi",
    "lat": 65.0593177,
    "lng": 25.4662935
  },
  {
    "name": "KOTKANPOIKA OAMK KOTKANTIEN KAMPUS (0235)",
    "address": "KOTKANTIE 1",
    "postal_code": "90250",
    "city": "OULU",
    "www": "http://www.kotkanpoika&kultturelli@amica.fi",
    "admin": "FAZER FOOD SERVICES OY",
    "admin_www": "https://www.fazerfoodco.fi/",
    "lat": 64.99965759999999,
    "lng": 25.5107027
  },
  {
    "name": "NETTIKAHVILA",
    "address": "AAPISTIE 7",
    "postal_code": "90014",
    "city": "OULUN YLIOPISTO",
    "www": "http://www.uniresta.fi",
    "admin": "UNIRESTA OY",
    "admin_www": "http://www.uniresta.fi",
    "lat": 65.0079231,
    "lng": 25.5227682
  },
  {
    "name": "ODL KANTAKORTTELI (1694)",
    "address": "ALBERTINKATU 16",
    "postal_code": "90100",
    "city": "OULU",
    "www": "http://www.fazerfoodco.fi/kantakortteli",
    "admin": "FAZER FOOD SERVICES OY",
    "admin_www": "https://www.fazerfoodco.fi/",
    "lat": 65.00887039999999,
    "lng": 25.4703512
  },
  {
    "name": "OULUN NORMAALIKOULU ALA-ASTE LINNANMAA(237)",
    "address": "YLIOPISTONKATU 48",
    "postal_code": "90570",
    "city": "OULU",
    "www": "http://www.amica.fi/oulunnormaalikoulu",
    "admin": "FAZER FOOD SERVICES OY",
    "admin_www": "https://www.fazerfoodco.fi/",
    "lat": 60.1697029,
    "lng": 24.9459016
  },
  {
    "name": "OULUN YLIOPISTOLLINEN SAIRAALA",
    "address": "PL 50",
    "postal_code": "90029",
    "city": "OYS",
    "www": "http://www.ppshp.fi/ravintolapalvelut/",
    "admin": "POHJOIS-POHJANMAAN SAIRAANHOITOPIIRIN KUNTAYHTYMÄ",
    "admin_www": "http://www.ppshp.fi/ravintolapalvelut/",
    "lat": "",
    "lon": ""
  },
  {
    "name": "OULUN YO:N HARJOITTELUKOULU (0242) KOSKELAN YKSIKKÖ",
    "address": "TULLIMIEHENKATU 8",
    "postal_code": "90560",
    "city": "OULU",
    "www": "https://www.fazerfoodco.fi/",
    "admin": "FAZER FOOD SERVICES OY",
    "admin_www": "https://www.fazerfoodco.fi/",
    "lat": 65.6818095,
    "lng": 24.5847252
  },
  {
    "name": "RAVINTOLA KASTARI",
    "address": "PENTTI KAITERAN KATU 1",
    "postal_code": "90014",
    "city": "OULUN YLIOPISTO",
    "www": "http://www.uniresta.fi",
    "admin": "UNIRESTA OY",
    "admin_www": "http://www.uniresta.fi",
    "lat": 65.0563701,
    "lng": 25.4683075
  },
  {
    "name": "RAVINTOLA MEDISIINA",
    "address": "AAPISTIE 5 A",
    "postal_code": "90014",
    "city": "OULUN YLIOPISTO",
    "www": "http://www.uniresta.fi",
    "admin": "UNIRESTA OY",
    "admin_www": "http://www.uniresta.fi",
    "lat": 65.007327,
    "lng": 25.5240531
  },
  {
    "name": "RAVINTOLA PRELUDI",
    "address": "LEEVI MADETOJAN KATU 1-3",
    "postal_code": "90140",
    "city": "OULU",
    "www": "http://www.uniresta.fi",
    "admin": "UNIRESTA OY",
    "admin_www": "http://www.uniresta.fi",
    "lat": 65.0055698,
    "lng": 25.4796658
  },
  {
    "name": "RAVINTOLA VANILLA",
    "address": "TORIKATU 34-40",
    "postal_code": "90100",
    "city": "OULU",
    "www": "http://www.uniresta.fi",
    "admin": "UNIRESTA OY",
    "admin_www": "http://www.uniresta.fi",
    "lat": 65.0106359,
    "lng": 25.4654232
  },
  {
    "name": "RESTAURANT FOOBAR",
    "address": "PENTTI KAITERAN KATU 1, OVI R",
    "postal_code": "90014",
    "city": "OULUN YLIOPISTO",
    "www": "http://www.juvenes.fi",
    "admin": "JUVENES OY",
    "admin_www": "http://www.juvenes.fi",
    "lat": 65.0593177,
    "lng": 25.4662935
  },
  {
    "name": "RESTAURANT FOODOO",
    "address": "PENTTI KAITERAN KATU 1, OVI A",
    "postal_code": "90014",
    "city": "OULUN YLIOPISTO",
    "www": "http://www.juvenes.fi",
    "admin": "JUVENES OY",
    "admin_www": "http://www.juvenes.fi",
    "lat": 65.0593177,
    "lng": 25.4662935
  },
  {
    "name": "RESTAURANT KYLYMÄ",
    "address": "PENTTI KAITERAN KATU 1, OVI E",
    "postal_code": "90014",
    "city": "OULUN YLIOPISTO",
    "www": "http://www.juvenes.fi",
    "admin": "JUVENES OY",
    "admin_www": "http://www.juvenes.fi",
    "lat": 65.0593177,
    "lng": 25.4662935
  },
  {
    "name": "RESTAURANT MARA",
    "address": "PENTTI KAITERAN KATU 1, OVI C",
    "postal_code": "90014",
    "city": "OULUN YLIOPISTO",
    "www": "http://www.juvenes.fi",
    "admin": "JUVENES OY",
    "admin_www": "http://www.juvenes.fi",
    "lat": 65.0593177,
    "lng": 25.4662935
  },
  {
    "name": "RESTAURANT NAPA",
    "address": "ERKKI KOISO-KANTTILANKATU",
    "postal_code": "90570",
    "city": "OULU",
    "www": "http://www.juvenes.fi",
    "admin": "JUVENES OY",
    "admin_www": "http://www.juvenes.fi",
    "lat": 65.0594773,
    "lng": 25.4699236
  },
  {
    "name": "WALLU (0217)",
    "address": "TEUVO PAKKALAN KATU 19",
    "postal_code": "90130",
    "city": "OULU",
    "www": "http://www.amica.fi/wallu",
    "admin": "FAZER FOOD SERVICES OY",
    "admin_www": "https://www.fazerfoodco.fi/",
    "lat": 65.0066361,
    "lng": 25.4901111
  },
  {
    "name": "MESSI/KPAMK YLIVIESKAN YKSIKKÖ TEKNIIKKA (3565)",
    "address": "VIERIMAANTIE 7",
    "postal_code": "84100",
    "city": "YLIVIESKA",
    "www": "http://www.amica.fi/messi",
    "admin": "FAZER FOOD SERVICES OY",
    "admin_www": "https://www.fazerfoodco.fi/",
    "lat": 64.0739665,
    "lng": 24.5154848
  },
  {
    "name": "RAUDASKYLÄN KRISTILLISEN OPISTON RAVINTOLA",
    "address": "OPISTONTIE 4-6",
    "postal_code": "84880",
    "city": "YLIVIESKA",
    "www": "http://rko.cop.fi",
    "admin": "RAUDASKYLÄN KRISTILLINEN OPISTO RY",
    "admin_www": "http://rko.cop.fi",
    "lat": 64.0045282,
    "lng": 24.7478911
  },
  {
    "name": "SAVONIA AMK IISALMI HAUKISAARENTIE (0455)",
    "address": "HAUKISAARENTIE 2",
    "postal_code": "74130",
    "city": "IISALMI",
    "www": "http://www.fazerfoodco.fi/savoniaiisalmi",
    "admin": "FAZER FOOD SERVICES OY",
    "admin_www": "https://www.fazerfoodco.fi/",
    "lat": 63.541778,
    "lng": 27.216819
  },
  {
    "name": "YLÄ-SAVON AMMATTIOPISTO/PELTOSALMEN YKSIKKÖ",
    "address": "KOTIKYLÄNTIE 254",
    "postal_code": "74100",
    "city": "IISALMI",
    "www": "",
    "admin": "YLÄ-SAVON KOULUTUSKUNTAYHTYMÄ",
    "admin_www": "",
    "lat": 63.4971048,
    "lng": 27.215201
  },
  {
    "name": "AMICA-RAVINTOLA CANTHIA (0436)",
    "address": "YLIOPISTONRANTA 1 C, B PORRAS",
    "postal_code": "70210",
    "city": "KUOPIO",
    "www": "https://www.fazerfoodco.fi/",
    "admin": "FAZER FOOD SERVICES OY",
    "admin_www": "https://www.fazerfoodco.fi/",
    "lat": 62.89221509999999,
    "lng": 27.6359665
  },
  {
    "name": "ANTELL RAVINTOLA ROUND JA BISTRO",
    "address": "MICROKATU 1",
    "postal_code": "70210",
    "city": "KUOPIO",
    "www": "http://www.antell.fi",
    "admin": "ANTELL-RAVINTOLAT OY",
    "admin_www": "http://www.antell.fi",
    "lat": 62.8899837,
    "lng": 27.6315037
  },
  {
    "name": "HILIMA 6809",
    "address": "KYS RAK1 T-KÄYTÄVÄ PUIJONLAAKSONTIE 2",
    "postal_code": "70210",
    "city": "KUOPIO",
    "www": "",
    "admin": "SERVICA OY",
    "admin_www": "http://www.servica.fi",
    "lat": 62.89754199999999,
    "lng": 27.647025
  },
  {
    "name": "JAKELUPISTE (0442) MEDITEKNIA. ITÄ-SUOMEN YLIOPISTO",
    "address": "HARJULANTIE 1",
    "postal_code": "70210",
    "city": "KUOPIO",
    "www": "https://www.fazerfoodco.fi/mediteknia",
    "admin": "FAZER FOOD SERVICES OY",
    "admin_www": "https://www.fazerfoodco.fi/",
    "lat": "",
    "lon": ""
  },
  {
    "name": "KAARRE 6810",
    "address": "KYS RAK 2, 1KRS PUIJONALAAKSONTIE 2",
    "postal_code": "70210",
    "city": "KUOPIO",
    "www": "",
    "admin": "SERVICA OY",
    "admin_www": "http://www.servica.fi",
    "lat": 62.89754199999999,
    "lng": 27.647025
  },
  {
    "name": "KUOPION MUSIIKKIKESKUKSEN RAVINTOLA",
    "address": "KUOPIONLAHDENKATU 23",
    "postal_code": "70100",
    "city": "KUOPIO",
    "www": "http://www.kanresta.fi",
    "admin": "KANRESTA OY",
    "admin_www": "http://www.kanresta.fi",
    "lat": 62.88822889999999,
    "lng": 27.678701
  },
  {
    "name": "OPISKELIJARAVINTOLA KOIVUKOKKI",
    "address": "KANSANOPISTOTIE 32",
    "postal_code": "70800",
    "city": "KUOPIO",
    "www": "http://www.psko.fi",
    "admin": "POHJOIS-SAVON KANSANOPISTOSEURA RY",
    "admin_www": "http://www.psko.fi",
    "lat": 62.81536610000001,
    "lng": 27.6270118
  },
  {
    "name": "RAVINTOKESKUS",
    "address": "NIUVANKUJA 65",
    "postal_code": "70240",
    "city": "KUOPIO",
    "www": "",
    "admin": "NIUVANNIEMEN SAIRAALA",
    "admin_www": "",
    "lat": 62.91376619999999,
    "lng": 27.6253878
  },
  {
    "name": "SAVONIA AMK",
    "address": "OPISTOTIE 2",
    "postal_code": "70200",
    "city": "KUOPIO",
    "www": "http://www.sodexo.fi",
    "admin": "SODEXO OY",
    "admin_www": "http://www.sodexo.fi",
    "lat": 62.89846319999999,
    "lng": 27.6632738
  },
  {
    "name": "SAVOTALO 6812",
    "address": "TULLIPORTINKATU 17",
    "postal_code": "70700",
    "city": "KUOPIO",
    "www": "",
    "admin": "SERVICA OY",
    "admin_www": "http://www.servica.fi",
    "lat": 62.893714,
    "lng": 27.6852979
  },
  {
    "name": "SNELLMANIA. ITÄ-SUOMEN YO KUOPIN KAMPUS (0437)",
    "address": "YLIOPISTONRANTA 1 E",
    "postal_code": "70210",
    "city": "KUOPIO",
    "www": "http://www.fazerfoodco.fi/snellmania",
    "admin": "FAZER FOOD SERVICES OY",
    "admin_www": "https://www.fazerfoodco.fi/",
    "lat": 62.8925181,
    "lng": 27.635264
  },
  {
    "name": "TIETOTEKNIA (0439)",
    "address": "SAVILAHDENTIE 6 L 4",
    "postal_code": "70210",
    "city": "KUOPIO",
    "www": "http://www.fazerfoodco.fi/tietoteknia",
    "admin": "FAZER FOOD SERVICES OY",
    "admin_www": "https://www.fazerfoodco.fi/",
    "lat": 62.8908459,
    "lng": 27.6367252
  },
  {
    "name": "LOUNASRAVINTOLA OSMAN HERKKU",
    "address": "OSMAJOENTIE 75 A",
    "postal_code": "78210",
    "city": "VARKAUS",
    "www": "",
    "admin": "SAVON KOULUTUSKUNTAYHTYMÄ",
    "admin_www": "",
    "lat": 62.32787769999999,
    "lng": 27.8501379
  },
  {
    "name": "KASKELAN RUOKASALI",
    "address": "KASKELANTIE 10",
    "postal_code": "19120",
    "city": "VIERUMÄKI",
    "www": "http://www.vierumaki.fi",
    "admin": "VIERUMÄKI COUNTRY CLUB OY",
    "admin_www": "http://www.vierumaki.fi",
    "lat": 61.1140684,
    "lng": 26.0079393
  },
  {
    "name": "M19 FOOD MARKET",
    "address": "MUKKULANKATU 19",
    "postal_code": "15210",
    "city": "LAHTI",
    "www": "",
    "admin": "ISS PALVELUT OY",
    "admin_www": "",
    "lat": 61.00564779999999,
    "lng": 25.6651198
  },
  {
    "name": "N73",
    "address": "NIEMENKATU 73",
    "postal_code": "15140",
    "city": "LAHTI",
    "www": "",
    "admin": "ISS PALVELUT OY",
    "admin_www": "",
    "lat": 61.0052161,
    "lng": 25.6522302
  },
  {
    "name": "RAVINTOLA ELLEN",
    "address": "STÅHLBERGINKATU 4 B",
    "postal_code": "15110",
    "city": "LAHTI",
    "www": "http://www.salpaus.fi/asiakaspalvelut/koo-kuppilat",
    "admin": "KOULUTUSKESKUS SALPAUS KY/RAVINTOLAPALVELUT",
    "admin_www": "http://www.salpaus.fi/asiakaspalvelut/koo-kuppilat",
    "lat": 60.98408079999999,
    "lng": 25.6418669
  },
  {
    "name": "HARJAVALLAN SAIRAALAN RUOKAPALVELUT",
    "address": "SAIRAALANTIE 14",
    "postal_code": "29200",
    "city": "HARJAVALTA",
    "www": "",
    "admin": "SATAKUNNAN SAIRAANHOITOPIIRI",
    "admin_www": "",
    "lat": 61.3027597,
    "lng": 22.1478827
  },
  {
    "name": "HUITTISTEN AMMATTI- JA YRITTÄJÄOPISTO(3667)",
    "address": "RISTO RYTIN KATU 70",
    "postal_code": "32700",
    "city": "HUITTINEN",
    "www": "http://www.amica.fi/hirvenpaa",
    "admin": "FAZER FOOD SERVICES OY",
    "admin_www": "https://www.fazerfoodco.fi/",
    "lat": 61.1796419,
    "lng": 22.7149745
  },
  {
    "name": "ARKEA RAVINTOLA 100-ART",
    "address": "PAASIKIVENKATU 24",
    "postal_code": "38700",
    "city": "KANKAANPÄÄ",
    "www": "",
    "admin": "ARKEA OY",
    "admin_www": "",
    "lat": 60.187546,
    "lng": 24.9114183
  },
  {
    "name": "JUSTIINA/PORIN PALO- JA POLIISITALO (0560)",
    "address": "SATAKUNNANKATU 5",
    "postal_code": "28100",
    "city": "PORI",
    "www": "http://www.amica.fi/justiina",
    "admin": "FAZER FOOD SERVICES OY",
    "admin_www": "https://www.fazerfoodco.fi/",
    "lat": 61.5014969,
    "lng": 23.7714745
  },
  {
    "name": "LOUNAS- JA JUHLAPALVELU PIKANTTI, RAV. PIHLAJASALI",
    "address": "METSÄMIEHENKATU 2",
    "postal_code": "28500",
    "city": "PORI",
    "www": "",
    "admin": "DIAKON PALVELUT OY",
    "admin_www": "",
    "lat": 61.47517180000001,
    "lng": 21.7761586
  },
  {
    "name": "PORIN SAIRAALAN RAVINTOKESKUS",
    "address": "MAANTIEKATU 31",
    "postal_code": "28120",
    "city": "PORI",
    "www": "",
    "admin": "PORIN PALVELULIIKELAITOS",
    "admin_www": "",
    "lat": 61.4862738,
    "lng": 21.7702231
  },
  {
    "name": "RAVINTOLA SKENE JA CAFé AGORA",
    "address": "SATAKUNNANKATU 25",
    "postal_code": "28130",
    "city": "PORI",
    "www": "http://www.juvenes.fi",
    "admin": "JUVENES OY",
    "admin_www": "http://www.juvenes.fi",
    "lat": 61.50024140000001,
    "lng": 23.7544595
  },
  {
    "name": "SATAKUNNAN KESKUSSAIRAALAN HENKILÖSTÖRAVINTOLA",
    "address": "SAIRAALANTIE 3",
    "postal_code": "28500",
    "city": "PORI",
    "www": "",
    "admin": "SATAKUNNAN SAIRAANHOITOPIIRI",
    "admin_www": "",
    "lat": 61.47304349999999,
    "lng": 21.7801902
  },
  {
    "name": "SOFIA/PORIN YLIOPISTOKESKUS (3659)",
    "address": "SILTAPUISTOKATU 2",
    "postal_code": "28100",
    "city": "PORI",
    "www": "http://www.amica.fi/ravintolasofia",
    "admin": "FAZER FOOD SERVICES OY",
    "admin_www": "https://www.fazerfoodco.fi/",
    "lat": 61.4923802,
    "lng": 21.8006862
  },
  {
    "name": "LÄNSITUULI/OKL RAUMAN YKSIKKÖ (0557)",
    "address": "SEMINAARINKATU 1",
    "postal_code": "26100",
    "city": "RAUMA",
    "www": "http://www.amica.fi/lansituuli",
    "admin": "FAZER FOOD SERVICES OY",
    "admin_www": "https://www.fazerfoodco.fi/",
    "lat": 61.13081210000001,
    "lng": 21.4977214
  },
  {
    "name": "OPISKELIJARAVINTOLA MESSI",
    "address": "SUOJANTIE 2",
    "postal_code": "26100",
    "city": "RAUMA",
    "www": "",
    "admin": "LÄNSIRANNIKON KOULUTUS OY, WINNOVA",
    "admin_www": "",
    "lat": 61.12657979999999,
    "lng": 21.4774604
  },
  {
    "name": "OPISKELIJARAVINTOLA SOSTERI",
    "address": "STENIUKSENKATU 8",
    "postal_code": "26100",
    "city": "RAUMA",
    "www": "",
    "admin": "LÄNSIRANNIKON KOULUTUS OY, WINNOVA",
    "admin_www": "",
    "lat": 61.1296188,
    "lng": 21.5302201
  },
  {
    "name": "RAVINTOLA KANALI",
    "address": "SATAMAKATU 26",
    "postal_code": "26100",
    "city": "RAUMA",
    "www": "http://www.juvenes.fi",
    "admin": "JUVENES OY",
    "admin_www": "http://www.juvenes.fi",
    "lat": 61.49440380000001,
    "lng": 23.7457349
  },
  {
    "name": "STENIUKSEN KESKUSKEITTIÖN HENKILÖSTÖRAVINTOLA",
    "address": "STENIUKSENKATU 2",
    "postal_code": "26100",
    "city": "RAUMA",
    "www": "",
    "admin": "RAUMAN KAUPUNKI KESKUSVIRASTO RUOKAPALVELU",
    "admin_www": "",
    "lat": 61.12920539999999,
    "lng": 21.5216787
  },
  {
    "name": "SOSIAALIPALVELUJEN RUOKAPALVELUT",
    "address": "RAVANINTIE 359",
    "postal_code": "28450",
    "city": "VANHA-ULVILA",
    "www": "",
    "admin": "SATAKUNNAN SAIRAANHOITOPIIRI",
    "admin_www": "",
    "lat": 61.4129504,
    "lng": 21.9395943
  },
  {
    "name": "AALTO KVARKKI",
    "address": "OTAKAARI 3",
    "postal_code": "02150",
    "city": "ESPOO",
    "www": "http://www.sodexo.fi",
    "admin": "SODEXO OY",
    "admin_www": "http://www.sodexo.fi",
    "lat": 60.1882086,
    "lng": 24.8298102
  },
  {
    "name": "AALTO VALIMO (FI139389)",
    "address": "METALLIMIEHENKUJA 2",
    "postal_code": "02150",
    "city": "ESPOO",
    "www": "http://www.sodexo.fi",
    "admin": "SODEXO OY",
    "admin_www": "http://www.sodexo.fi",
    "lat": 60.18346,
    "lng": 24.8283661
  },
  {
    "name": "AALTO-YLIOPISTO SODEXO KONETEKNIIKKA (FI137146)",
    "address": "OTAKAARI 4",
    "postal_code": "02150",
    "city": "ESPOO",
    "www": "http://www.sodexo.fi",
    "admin": "SODEXO OY",
    "admin_www": "http://www.sodexo.fi",
    "lat": 60.1872105,
    "lng": 24.8270272
  },
  {
    "name": "AALTO-YO TIETOTEKNIIKANTALO (FI137147)/SUBWAY OTANIEMI",
    "address": "KONEMIEHENTIE 2",
    "postal_code": "02150",
    "city": "ESPOO",
    "www": "http://www.sodexo.fi",
    "admin": "SODEXO OY",
    "admin_www": "http://www.sodexo.fi",
    "lat": 60.1869552,
    "lng": 24.8213731
  },
  {
    "name": "ALVARI/ AALTO YLIOPISTO (0190)",
    "address": "OTAKAARI 1 D",
    "postal_code": "02150",
    "city": "ESPOO",
    "www": "http://www.fazerfoodco.fi/alvari",
    "admin": "FAZER FOOD SERVICES OY",
    "admin_www": "https://www.fazerfoodco.fi/",
    "lat": 60.18628889999999,
    "lng": 24.8285279
  },
  {
    "name": "BARLAUREA OPETUSRAVINTOLA",
    "address": "VANHA MAANTIE 9",
    "postal_code": "02650",
    "city": "ESPOO",
    "www": "",
    "admin": "LAUREA-AMMATTIKORKEAKOULU OY",
    "admin_www": "",
    "lat": 60.22267360000001,
    "lng": 24.8052394
  },
  {
    "name": "DIPOLI RAVINTOLAT, AALTO YLIOPISTO (3101)",
    "address": "OTAKAARI 24",
    "postal_code": "02150",
    "city": "ESPOO",
    "www": "http://www.fazerfoodco.fi/dipoli",
    "admin": "FAZER FOOD SERVICES OY",
    "admin_www": "https://www.fazerfoodco.fi/",
    "lat": 60.1850701,
    "lng": 24.8324637
  },
  {
    "name": "FAZER FOOD & CO. A BLOCK RAVINTOLA, AALTO METROKESKUS",
    "address": "OTANIEMENTIE 12",
    "postal_code": "02150",
    "city": "ESPOO",
    "www": "http://www.fazerfoodco.fi/abloc",
    "admin": "FAZER FOOD SERVICES OY",
    "admin_www": "https://www.fazerfoodco.fi/",
    "lat": 60.1846499,
    "lng": 24.8256169
  },
  {
    "name": "JORVIN SAIRAALA, RUOKAPALVELUT",
    "address": "TURUNTIE 150",
    "postal_code": "02740",
    "city": "ESPOO",
    "www": "",
    "admin": "HUS ASVIA",
    "admin_www": "",
    "lat": 60.25869099999999,
    "lng": 24.4884378
  },
  {
    "name": "KIPSARI (KÄYNTIOS. OTANIEMENTIE 14, 02150 ESPOO)",
    "address": "C/O AALTO-YLIOPISTO, PL 31000",
    "postal_code": "00076",
    "city": "AALTO",
    "www": "",
    "admin": "KIPSARI OY",
    "admin_www": "",
    "lat": 60.1866693,
    "lng": 24.827682
  },
  {
    "name": "LAUREA AMK OTANIEMI",
    "address": "METSÄNPOJANKUJA 3",
    "postal_code": "02130",
    "city": "ESPOO",
    "www": "",
    "admin": "ISS PALVELUT OY",
    "admin_www": "",
    "lat": 60.185765,
    "lng": 24.8054583
  },
  {
    "name": "LOUNASRAVINTOLA/KAHVILA SUOLAHEINÄ",
    "address": "KARVASMÄENTIE 4-6",
    "postal_code": "02740",
    "city": "ESPOO",
    "www": "",
    "admin": "HUS ASVIA",
    "admin_www": "",
    "lat": 60.22214,
    "lng": 24.6851702
  },
  {
    "name": "METROPOLIA AMMATTIKORKEAKOULU (3208)",
    "address": "KARAKAARENKUJA 6",
    "postal_code": "02610",
    "city": "ESPOO",
    "www": "",
    "admin": "FAZER FOOD SERVICES OY",
    "admin_www": "https://www.fazerfoodco.fi/",
    "lat": 60.2234355,
    "lng": 24.7590815
  },
  {
    "name": "STUDIO KIPSARI",
    "address": "OTAKAARI 7",
    "postal_code": "02150",
    "city": "ESPOO",
    "www": "",
    "admin": "KIPSARI OY",
    "admin_www": "",
    "lat": 60.18898549999999,
    "lng": 24.8332643
  },
  {
    "name": "TEKNOLOGFÖRENINGEN",
    "address": "OTSVÄNGEN 22",
    "postal_code": "02150",
    "city": "ESPOO",
    "www": "http://www.teknologforeningen.fi",
    "admin": "TEKNOLOGFÖRENINGEN",
    "admin_www": "",
    "lat": 60.1860363,
    "lng": 24.8329343
  },
  {
    "name": "TUAS-TALO/AALTO YLIOPISTO (0199)",
    "address": "MAARINTIE 8",
    "postal_code": "02150",
    "city": "ESPOO",
    "www": "http://www.fazerfoodco.fi/tuas",
    "admin": "FAZER FOOD SERVICES OY",
    "admin_www": "https://www.fazerfoodco.fi/",
    "lat": 60.18683780000001,
    "lng": 24.8193704
  },
  {
    "name": "TVÄRMINNEN ELÄINTIETEELLINEN AS.",
    "address": "J.A. PALMÉNIN TIE 260",
    "postal_code": "10900",
    "city": "HANKO",
    "www": "http://rontti.helsinki.fi/tvea/",
    "admin": "HELSINGIN YLIOPISTO",
    "admin_www": "",
    "lat": 59.84316190000001,
    "lng": 23.2440297
  },
  {
    "name": "ALPPICA/HDL (2123)",
    "address": "ALPPIKATU 2",
    "postal_code": "00530",
    "city": "HELSINKI",
    "www": "http://www.amica.fi/diakonissalaitos",
    "admin": "FAZER FOOD SERVICES OY",
    "admin_www": "https://www.fazerfoodco.fi/",
    "lat": 60.1846039,
    "lng": 24.9404201
  },
  {
    "name": "ARCADA/YRKESHÖGSKOLAN ARCADA (3003)",
    "address": "JAN-MAGNUS JANSSONSPLATS 1",
    "postal_code": "00550",
    "city": "HELSINKI",
    "www": "http://www.amica.fi/arcada",
    "admin": "FAZER FOOD SERVICES OY",
    "admin_www": "https://www.fazerfoodco.fi/",
    "lat": 60.20153149999999,
    "lng": 24.9662263
  },
  {
    "name": "AURORAN SAIRAALA, RAVINTOLA (9535200002)",
    "address": "NORDENSKIÖLDINKATU 20",
    "postal_code": "00250",
    "city": "HELSINKI",
    "www": "https://www.hel.fi/palvelukeskus/fi/ateriapalvelut/",
    "admin": "HELSINGIN KAUPUNGIN PALVELUKESKUS",
    "admin_www": "https://www.hel.fi/palvelukeskus/fi/ateriapalvelut/",
    "lat": 60.19313519999999,
    "lng": 24.9253164
  },
  {
    "name": "BIOMEDICUMIN PALVELUKEITTIÖ",
    "address": "HAARTMANINKATU 8",
    "postal_code": "00029",
    "city": "HUS",
    "www": "",
    "admin": "HUS ASVIA",
    "admin_www": "",
    "lat": 60.1906114,
    "lng": 24.9056901
  },
  {
    "name": "CAFé FEENIKS",
    "address": "POHJOINEN RAUTATIEKATU 9",
    "postal_code": "00100",
    "city": "HELSINKI",
    "www": "",
    "admin": "COMPASS GROUP FINLAND OY",
    "admin_www": "",
    "lat": 60.17170110000001,
    "lng": 24.932262
  },
  {
    "name": "CAFE KORONA",
    "address": "VIIKINKAARI 11",
    "postal_code": "00790",
    "city": "HELSINKI",
    "www": "",
    "admin": "YLVA PALVELUT OY",
    "admin_www": "",
    "lat": 60.2275713,
    "lng": 25.0129529
  },
  {
    "name": "DIAK KALASATAMA KAMPUS/DIAKONIA AMK(3104)",
    "address": "KYLÄSAARENKUJA 2",
    "postal_code": "00580",
    "city": "HELSINKI",
    "www": "http://www.fazerfoodco.fi/diak-kalasatama",
    "admin": "FAZER FOOD SERVICES OY",
    "admin_www": "https://www.fazerfoodco.fi/",
    "lat": 60.1990235,
    "lng": 24.969184
  },
  {
    "name": "HERTTONIEMEN SAIRAALA, RAVINTOLA (9535200001)",
    "address": "KETTUTIE 8",
    "postal_code": "00800",
    "city": "HELSINKI",
    "www": "https://www.hel.fi/palvelukeskus/fi/ateriapalvelut/",
    "admin": "HELSINGIN KAUPUNGIN PALVELUKESKUS",
    "admin_www": "https://www.hel.fi/palvelukeskus/fi/ateriapalvelut/",
    "lat": 60.20623149999999,
    "lng": 25.037046
  },
  {
    "name": "HUHMARE (KP 0170)",
    "address": "LAULUKUJA 6",
    "postal_code": "00420",
    "city": "HELSINKI",
    "www": "",
    "admin": "FAZER FOOD SERVICES OY",
    "admin_www": "https://www.fazerfoodco.fi/",
    "lat": 60.2384214,
    "lng": 24.8918595
  },
  {
    "name": "IHO- JA ALLERGIASAIRAALA, PALVELUKEITTIÖ",
    "address": "MEILAHDENTIE 2, 3 KRS",
    "postal_code": "00029",
    "city": "HUS",
    "www": "",
    "admin": "HUS ASVIA",
    "admin_www": "",
    "lat": 60.1917101,
    "lng": 24.8947351
  },
  {
    "name": "JAKELUPISTE BISTRO/OPETUSTALO",
    "address": "RATAPIHANTIE 13",
    "postal_code": "00520",
    "city": "HELSINKI",
    "www": "http://www.fazerfoodco.fi/opetustalo",
    "admin": "FAZER FOOD SERVICES OY",
    "admin_www": "https://www.fazerfoodco.fi/",
    "lat": 60.2016812,
    "lng": 24.9341868
  },
  {
    "name": "JAMIPAJA/POP & JAZZ KONSERVATORIO(3007)",
    "address": "ARABIANKATU 2",
    "postal_code": "00560",
    "city": "HELSINKI",
    "www": "http://www.fazerfoodco.fi/jamipaja",
    "admin": "FAZER FOOD SERVICES OY",
    "admin_www": "https://www.fazerfoodco.fi/",
    "lat": 60.2072933,
    "lng": 24.9758248
  },
  {
    "name": "KIRURGISEN SAIRAALAN PALVELUKEITTIÖ",
    "address": "KASARMIKATU 11-13",
    "postal_code": "00130",
    "city": "HELSINKI",
    "www": "",
    "admin": "HUS ASVIA",
    "admin_www": "",
    "lat": 60.1616167,
    "lng": 24.948999
  },
  {
    "name": "KIVELÄN RAVINTOKESKUS",
    "address": "SIBELIUKSENKATU 14, RAK. 6 (PL 9512)",
    "postal_code": "00260",
    "city": "HELSINKI",
    "www": "https://www.hel.fi/palvelukeskus/fi/ateriapalvelut/",
    "admin": "HELSINGIN KAUPUNGIN PALVELUKESKUS",
    "admin_www": "https://www.hel.fi/palvelukeskus/fi/ateriapalvelut/",
    "lat": 60.18066079999999,
    "lng": 24.9179276
  },
  {
    "name": "KOSKELAN MONIPUOLINEN PALVELUKESKUS",
    "address": "KÄPYLÄNTIE 11",
    "postal_code": "00600",
    "city": "HELSINKI",
    "www": "https://www.hel.fi/palvelukeskus/fi/ateriapalvelut/",
    "admin": "HELSINGIN KAUPUNGIN PALVELUKESKUS",
    "admin_www": "https://www.hel.fi/palvelukeskus/fi/ateriapalvelut/",
    "lat": 60.2170156,
    "lng": 24.9600154
  },
  {
    "name": "LAAKSON SAIRAALA, RAVINTOLA (9535200002)",
    "address": "LÄÄKÄRINKATU 8",
    "postal_code": "00250",
    "city": "HELSINKI",
    "www": "https://www.hel.fi/palvelukeskus/fi/ateriapalvelut/",
    "admin": "HELSINGIN KAUPUNGIN PALVELUKESKUS",
    "admin_www": "https://www.hel.fi/palvelukeskus/fi/ateriapalvelut/",
    "lat": 60.1925052,
    "lng": 24.9183241
  },
  {
    "name": "MALMICA / PERHO LIIKETALOUSOPISTO (3092)",
    "address": "HIETAKUMMUNTIE 1 A",
    "postal_code": "00700",
    "city": "HELSINKI",
    "www": "http://www.amica.fi/malmica",
    "admin": "FAZER FOOD SERVICES OY",
    "admin_www": "https://www.fazerfoodco.fi/",
    "lat": 60.2468953,
    "lng": 25.0166161
  },
  {
    "name": "MALMIN SAIRAALA, RAVINTOLA (9535200004)",
    "address": "TALVELANTIE 6",
    "postal_code": "00700",
    "city": "HELSINKI",
    "www": "https://www.hel.fi/palvelukeskus/fi/ateriapalvelut/",
    "admin": "HELSINGIN KAUPUNGIN PALVELUKESKUS",
    "admin_www": "https://www.hel.fi/palvelukeskus/fi/ateriapalvelut/",
    "lat": 60.2542899,
    "lng": 24.9997393
  },
  {
    "name": "MEILAHTI, RUOKAPALVELUT",
    "address": "STENBÄCKINKATU 9",
    "postal_code": "00029",
    "city": "HUS",
    "www": "",
    "admin": "HUS ASVIA",
    "admin_www": "",
    "lat": 60.18776159999999,
    "lng": 24.9101074
  },
  {
    "name": "METROPOLIA HÄMEENTIE",
    "address": "HÄMEENTIE 161",
    "postal_code": "00560",
    "city": "HELSINKI",
    "www": "http://www.sodexo.fi",
    "admin": "SODEXO OY",
    "admin_www": "http://www.sodexo.fi",
    "lat": 60.21429569999999,
    "lng": 24.9808394
  },
  {
    "name": "METROPOLIA MYLLYPURO",
    "address": "MYLLYPURONTIE 1",
    "postal_code": "00920",
    "city": "HELSINKI",
    "www": "",
    "admin": "SODEXO OY",
    "admin_www": "http://www.sodexo.fi",
    "lat": 60.2236152,
    "lng": 25.0783495
  },
  {
    "name": "METROPOLIA VANHA VIERTOTIE",
    "address": "VANHA VIIERTOTIE 23",
    "postal_code": "00350",
    "city": "HELSINKI",
    "www": "http://www.sodexo.fi",
    "admin": "SODEXO OY",
    "admin_www": "http://www.sodexo.fi",
    "lat": 60.2118763,
    "lng": 24.8829051
  },
  {
    "name": "MUSIIKKITALON RAVINTOLA",
    "address": "MANNERHEIMINTIE 13 A, A",
    "postal_code": "00100",
    "city": "HELSINKI",
    "www": "",
    "admin": "RESTEL RAVINTOLAT OY",
    "admin_www": "",
    "lat": 60.17373,
    "lng": 24.9350489
  },
  {
    "name": "OSAKUNTABAARI",
    "address": "URHO KEKKOSEN KATU 4-6 D",
    "postal_code": "00100",
    "city": "HELSINKI",
    "www": "http://www.hamalais-osakunta.fi",
    "admin": "HÄMÄLÄISTEN TALON OSAKUNTABAARI OY",
    "admin_www": "http://www.hamalais-osakunta.fi",
    "lat": 60.1687989,
    "lng": 24.9334074
  },
  {
    "name": "PÄÄRAIDE/OPETUSTALO (0083)",
    "address": "RAUTATIELÄISENKATU 5",
    "postal_code": "00520",
    "city": "HELSINKI",
    "www": "http://www.fazerfoodco.fi/opetustalo",
    "admin": "FAZER FOOD SERVICES OY",
    "admin_www": "https://www.fazerfoodco.fi/",
    "lat": 60.2015082,
    "lng": 24.9354627
  },
  {
    "name": "RAVINTOLA CAFFELI (3407)",
    "address": "PAJUNIITYNTIE 11",
    "postal_code": "00320",
    "city": "HELSINKI",
    "www": "https://www.fazerfoodco.fi/caffeli",
    "admin": "FAZER FOOD SERVICES OY",
    "admin_www": "https://www.fazerfoodco.fi/",
    "lat": 60.2180657,
    "lng": 24.9068046
  },
  {
    "name": "RAVINTOLA KONSERVATORIO",
    "address": "RUOHOLAHDENTORI 6",
    "postal_code": "00180",
    "city": "HELSINKI",
    "www": "https://ruoka.palmia.fi/fi/",
    "admin": "PALMIA OY",
    "admin_www": "",
    "lat": 60.162218,
    "lng": 24.9148642
  },
  {
    "name": "RAVINTOLA LADONLUKKO (FI119179)",
    "address": "LATOKARTANONKAARI 9",
    "postal_code": "00790",
    "city": "HELSINKI",
    "www": "http://www.sodexo.fi",
    "admin": "SODEXO OY",
    "admin_www": "http://www.sodexo.fi",
    "lat": 60.22909539999999,
    "lng": 25.0178658
  },
  {
    "name": "RAVINTOLA LUOVA",
    "address": "HÄMEENTIE 135 D",
    "postal_code": "00560",
    "city": "HELSINKI",
    "www": "",
    "admin": "COMPASS GROUP FINLAND OY",
    "admin_www": "",
    "lat": 60.2099369,
    "lng": 24.9767651
  },
  {
    "name": "RAVINTOLA SERPENS (YTHS)",
    "address": "TÖÖLÖNKATU 37 A",
    "postal_code": "00260",
    "city": "HELSINKI",
    "www": "",
    "admin": "YLVA PALVELUT OY",
    "admin_www": "",
    "lat": 60.18206669999999,
    "lng": 24.9228687
  },
  {
    "name": "RAVINTOLA TEMPO, TAIDEYLIOPISTON N-TALO",
    "address": "NERVANDERINKATU 13",
    "postal_code": "00101",
    "city": "HELSINKI",
    "www": "",
    "admin": "COMPASS GROUP FINLAND OY",
    "admin_www": "",
    "lat": 60.1739875,
    "lng": 24.9284936
  },
  {
    "name": "RAVINTOLA VALKEA TALO (FI129274)",
    "address": "ILKANTIE 4",
    "postal_code": "00400",
    "city": "HELSINKI",
    "www": "http://www.sodexo.fi",
    "admin": "SODEXO OY",
    "admin_www": "http://www.sodexo.fi",
    "lat": 60.2216079,
    "lng": 24.9019456
  },
  {
    "name": "SAVOR",
    "address": "ELIMÄENKATU 25-27",
    "postal_code": "00510",
    "city": "HELSINKI",
    "www": "",
    "admin": "NT-MAI OY",
    "admin_www": "",
    "lat": 60.1968373,
    "lng": 24.947929
  },
  {
    "name": "SUURSUON SAIRAALA, RAVINTOLA (9535200003)",
    "address": "SUURSUONLAITA 3 B",
    "postal_code": "00630",
    "city": "HELSINKI",
    "www": "https://www.hel.fi/palvelukeskus/fi/ateriapalvelut/",
    "admin": "HELSINGIN KAUPUNGIN PALVELUKESKUS",
    "admin_www": "https://www.hel.fi/palvelukeskus/fi/ateriapalvelut/",
    "lat": 60.234937,
    "lng": 24.9327528
  },
  {
    "name": "SVENSKA HANDELSHÖGSKOLAN (3406)",
    "address": "ARKADIANKATU 22",
    "postal_code": "00100",
    "city": "HELSINKI",
    "www": "https://www.fazerfoodco.fi/hanken",
    "admin": "FAZER FOOD SERVICES OY",
    "admin_www": "https://www.fazerfoodco.fi/",
    "lat": 60.171236,
    "lng": 24.9241595
  },
  {
    "name": "TEATTERIKORKEAKOULU (3067)",
    "address": "HAAPANIEMENKATU 6",
    "postal_code": "00530",
    "city": "HELSINKI",
    "www": "http://www.fazerfoodco.fi/teatterikorkeakoulu",
    "admin": "FAZER FOOD SERVICES OY",
    "admin_www": "https://www.fazerfoodco.fi/",
    "lat": 60.1810957,
    "lng": 24.9588696
  },
  {
    "name": "TÄHKÄ/ HELSINGIN YLIOPISTO (0061)",
    "address": "KOETILANTIE 7",
    "postal_code": "00790",
    "city": "HELSINKI",
    "www": "http://www.amica.fi/tahka",
    "admin": "FAZER FOOD SERVICES OY",
    "admin_www": "https://www.fazerfoodco.fi/",
    "lat": 60.2223068,
    "lng": 25.0189869
  },
  {
    "name": "TÖÖLÖN SAIRAALA, RUOKAPALVELUT",
    "address": "TOPELIUKSENKATU 5",
    "postal_code": "00029",
    "city": "HUS",
    "www": "",
    "admin": "HUS ASVIA",
    "admin_www": "",
    "lat": 60.1808284,
    "lng": 24.923055
  },
  {
    "name": "UNICAFE BIOKESKUS",
    "address": "VIIKINKAARI 9",
    "postal_code": "00790",
    "city": "HELSINKI",
    "www": "",
    "admin": "YLVA PALVELUT OY",
    "admin_www": "",
    "lat": 60.227089,
    "lng": 25.0145877
  },
  {
    "name": "UNICAFE CHEMICUM",
    "address": "A. I. VIRTASEN AUKIO 1",
    "postal_code": "00560",
    "city": "HELSINKI",
    "www": "",
    "admin": "YLVA PALVELUT OY",
    "admin_www": "",
    "lat": 60.2057963,
    "lng": 24.9634092
  },
  {
    "name": "UNICAFE EXACTUM",
    "address": "GUSTAF HÄLLSTRÖMIN KATU 2",
    "postal_code": "00560",
    "city": "HELSINKI",
    "www": "",
    "admin": "YLVA PALVELUT OY",
    "admin_www": "",
    "lat": 60.20471010000001,
    "lng": 24.9634785
  },
  {
    "name": "UNICAFE KAIVOPIHA",
    "address": "MANNERHEIMINTIE 3 B",
    "postal_code": "00100",
    "city": "HELSINKI",
    "www": "",
    "admin": "YLVA PALVELUT OY",
    "admin_www": "",
    "lat": 60.169512,
    "lng": 24.940357
  },
  {
    "name": "UNICAFE MEILAHTI",
    "address": "HAARTMANINKATU 3",
    "postal_code": "00290",
    "city": "HELSINKI",
    "www": "",
    "admin": "YLVA PALVELUT OY",
    "admin_www": "",
    "lat": 60.19060329999999,
    "lng": 24.9091575
  },
  {
    "name": "UNICAFE METSÄTALO",
    "address": "FABIANINKATU 39",
    "postal_code": "00170",
    "city": "HELSINKI",
    "www": "",
    "admin": "YLVA PALVELUT OY",
    "admin_www": "",
    "lat": 60.1725052,
    "lng": 24.9492144
  },
  {
    "name": "UNICAFE OLIVIA",
    "address": "SILTAVUORENPENGER 20 R",
    "postal_code": "00170",
    "city": "HELSINKI",
    "www": "",
    "admin": "YLVA PALVELUT OY",
    "admin_www": "",
    "lat": 60.1751965,
    "lng": 24.953783
  },
  {
    "name": "UNICAFE PHYSICUM",
    "address": "GUSTAF HÄLLSTRÖMIN KATU 2",
    "postal_code": "00560",
    "city": "HELSINKI",
    "www": "",
    "admin": "YLVA PALVELUT OY",
    "admin_www": "",
    "lat": 60.20471010000001,
    "lng": 24.9634785
  },
  {
    "name": "UNICAFE PORTHANIA & PORTAALI",
    "address": "YLIOPISTONKATU 3",
    "postal_code": "00170",
    "city": "HELSINKI",
    "www": "",
    "admin": "YLVA PALVELUT OY",
    "admin_www": "",
    "lat": 60.17039379999999,
    "lng": 24.948574
  },
  {
    "name": "UNICAFE PÄÄRAKENNUS & FREDRIKA",
    "address": "FABIANINKATU 33",
    "postal_code": "00170",
    "city": "HELSINKI",
    "www": "",
    "admin": "YLVA PALVELUT OY",
    "admin_www": "",
    "lat": 60.16945089999999,
    "lng": 24.9495854
  },
  {
    "name": "UNICAFE ROTUNDA",
    "address": "UNIONINKATU 36",
    "postal_code": "00170",
    "city": "HELSINKI",
    "www": "",
    "admin": "YLVA PALVELUT OY",
    "admin_www": "",
    "lat": 60.17033180000001,
    "lng": 24.9505071
  },
  {
    "name": "UNICAFE RUSKEASUO",
    "address": "KYTÖSUONTIE 9",
    "postal_code": "00300",
    "city": "HELSINKI",
    "www": "",
    "admin": "YLVA PALVELUT OY",
    "admin_www": "",
    "lat": 60.2059101,
    "lng": 24.8975503
  },
  {
    "name": "UNICAFE SOC & KOM",
    "address": "SNELLMANNINKATU 12",
    "postal_code": "00170",
    "city": "HELSINKI",
    "www": "",
    "admin": "YLVA PALVELUT OY",
    "admin_www": "",
    "lat": 60.17303,
    "lng": 24.9527079
  },
  {
    "name": "UNICAFE TOPELIAS",
    "address": "UNIONINKATU 38",
    "postal_code": "00170",
    "city": "HELSINKI",
    "www": "",
    "admin": "YLVA PALVELUT OY",
    "admin_www": "",
    "lat": 60.1717323,
    "lng": 24.9505018
  },
  {
    "name": "UNICAFE VIIKUNA",
    "address": "AGNES SJÖBERGIN KATU 2",
    "postal_code": "00790",
    "city": "HELSINKI",
    "www": "",
    "admin": "YLVA PALVELUT OY",
    "admin_www": "",
    "lat": 60.229297,
    "lng": 25.021813
  },
  {
    "name": "HYVINKÄÄN SAIRAALAN LOUNASRAVINTOLA",
    "address": "SAIRAALANKATU 1",
    "postal_code": "05850",
    "city": "HYVINKÄÄ",
    "www": "",
    "admin": "HYVINKÄÄN RAVITSEMISPALVELUT OY",
    "admin_www": "",
    "lat": 60.6098234,
    "lng": 24.8282107
  },
  {
    "name": "RP LAUREA HYVINKÄÄ",
    "address": "UUDENMAANKATU 22",
    "postal_code": "05800",
    "city": "HYVINKÄÄ",
    "www": "",
    "admin": "ISS PALVELUT OY",
    "admin_www": "",
    "lat": 60.16394599999999,
    "lng": 24.9395072
  },
  {
    "name": "ATERIAKEIDAS, KEUDA",
    "address": "SIBELIUKSENVÄYLÄ 55",
    "postal_code": "04400",
    "city": "JÄRVENPÄÄ",
    "www": "",
    "admin": "KESKI-UUDENMAAN KOULUTUSKUNTAYHTYMÄ",
    "admin_www": "",
    "lat": 60.45752419999999,
    "lng": 25.0838454
  },
  {
    "name": "TYÖVÄEN AKATEMIAN OPISKELIJARAVINTOLA",
    "address": "VANHA TURUNTIE 14",
    "postal_code": "02700",
    "city": "KAUNIAINEN",
    "www": "",
    "admin": "TYÖVÄEN AKATEMIA",
    "admin_www": "",
    "lat": 60.2219692,
    "lng": 24.7172636
  },
  {
    "name": "OPISKELIJA- JA TILAUSRAVINTOLA BREIKKI",
    "address": "KESKIKATU 3 A",
    "postal_code": "04200",
    "city": "KERAVA",
    "www": "",
    "admin": "KESKI-UUDENMAAN KOULUTUSKUNTAYHTYMÄ",
    "admin_www": "",
    "lat": 60.4051355,
    "lng": 25.1006827
  },
  {
    "name": "LOHJAN SAIRAALA, RUOKAPALVELUT",
    "address": "SAIRAALATIE 8",
    "postal_code": "08200",
    "city": "LOHJA",
    "www": "",
    "admin": "HUS ASVIA",
    "admin_www": "",
    "lat": 60.22304989999999,
    "lng": 24.0174209
  },
  {
    "name": "NUMMENTIEN OPISKELIJARAVINTOLA",
    "address": "NUMMENTIE 6",
    "postal_code": "08100",
    "city": "LOHJA",
    "www": "",
    "admin": "LÄNSI-UUDENMAAN KOULUTUSKUNTAYHTYMÄ, LUKSIA",
    "admin_www": "",
    "lat": 60.2514774,
    "lng": 24.0723216
  },
  {
    "name": "KEUDA MÄNTSÄLÄ, LUSIKKALINNA OP. RAVINTOLA",
    "address": "PARONINKUJA 20",
    "postal_code": "04920",
    "city": "SAARENTAUS",
    "www": "",
    "admin": "KESKI-UUDENMAAN KOULUTUSKUNTAYHTYMÄ",
    "admin_www": "",
    "lat": 60.7344347,
    "lng": 25.4223011
  },
  {
    "name": "KILJAVAN OPISTON LOUNASRAVINTOLA",
    "address": "KOTORANNANTIE 49",
    "postal_code": "05250",
    "city": "KILJAVA",
    "www": "http://www.kio.fi",
    "admin": "PALKANSAAJIEN KOULUTUSSÄÄTIÖ SR",
    "admin_www": "http://www.kio.fi",
    "lat": 60.5066073,
    "lng": 24.6929422
  },
  {
    "name": "PORVOO CAMPUS",
    "address": "TAIDETEHTAANKATU 1",
    "postal_code": "06100",
    "city": "PORVOO",
    "www": "",
    "admin": "ISS PALVELUT OY",
    "admin_www": "",
    "lat": 60.3876078,
    "lng": 25.6554342
  },
  {
    "name": "PORVOON SAIRAALA, RUOKAPALVELUT",
    "address": "SAIRAALANTIE 1",
    "postal_code": "06150",
    "city": "PORVOO",
    "www": "",
    "admin": "HUS ASVIA",
    "admin_www": "",
    "lat": 60.3793175,
    "lng": 25.6949434
  },
  {
    "name": "ATRIUM/YRKESHÖGSKOLAN NOVIA (0189)",
    "address": "RASEBORGSVÄGEN 9",
    "postal_code": "10600",
    "city": "TAMMISAARI",
    "www": "http://www.amica.fi/atrium",
    "admin": "FAZER FOOD SERVICES OY",
    "admin_www": "https://www.fazerfoodco.fi/",
    "lat": 59.975937,
    "lng": 23.4506182
  },
  {
    "name": "LÄNSI-UUDENMAAN SAIRAANHOITOALUE, RUOKAPALVELUT",
    "address": "ITÄINEN RANTAKATU 9",
    "postal_code": "10600",
    "city": "TAMMISAARI",
    "www": "",
    "admin": "HUS ASVIA",
    "admin_www": "",
    "lat": 59.96997469999999,
    "lng": 23.4380588
  },
  {
    "name": "TAMMIHARJUN SAIRAALA",
    "address": "RAASEPORINTIE 37",
    "postal_code": "10600",
    "city": "TAMMISAARI",
    "www": "",
    "admin": "HUS ASVIA",
    "admin_www": "",
    "lat": 59.9840876,
    "lng": 23.4747295
  },
  {
    "name": "KELLOKOSKEN SAIRAALAN RUOKAPALVELUT",
    "address": "VANHA VALTATIE 198",
    "postal_code": "04500",
    "city": "KELLOKOSKI",
    "www": "",
    "admin": "HUS ASVIA",
    "admin_www": "",
    "lat": 60.5317994,
    "lng": 25.109539
  },
  {
    "name": "LAUREA AMK TIKKURILA",
    "address": "RATATIE 22",
    "postal_code": "01300",
    "city": "VANTAA",
    "www": "",
    "admin": "ISS PALVELUT OY",
    "admin_www": "",
    "lat": 60.294987,
    "lng": 25.0440579
  },
  {
    "name": "METROPOLIA LEIRITIE",
    "address": "LEIRITIE 1",
    "postal_code": "01600",
    "city": "VANTAA",
    "www": "http://www.sodexo.fi",
    "admin": "SODEXO OY",
    "admin_www": "http://www.sodexo.fi",
    "lat": 60.25858569999999,
    "lng": 24.8455813
  },
  {
    "name": "PEIJAKSEN SAIRAALA, RUOKAPALVELUT",
    "address": "SAIRAALAKATU 1",
    "postal_code": "01400",
    "city": "VANTAA",
    "www": "",
    "admin": "HUS ASVIA",
    "admin_www": "",
    "lat": 60.3312266,
    "lng": 25.0595259
  },
  {
    "name": "TRADERIA/KAUPPIAITTEN KAUPPAOPPILAITOS (3329)",
    "address": "MARTINLAAKSONTIE 36",
    "postal_code": "01620",
    "city": "VANTAA",
    "www": "",
    "admin": "FAZER FOOD SERVICES OY",
    "admin_www": "https://www.fazerfoodco.fi/",
    "lat": 60.275097,
    "lng": 24.8460587
  },
  {
    "name": "ARKEA/LOIMAAN SAIRAALAN HENKILÖSTÖRAVINTOLA",
    "address": "SEPPÄLÄNKATU 15",
    "postal_code": "32200",
    "city": "LOIMAA",
    "www": "",
    "admin": "ARKEA OY",
    "admin_www": "",
    "lat": 60.8521557,
    "lng": 23.05116
  },
  {
    "name": "KIILA/SALO IOT (3641)",
    "address": "JOENSUUNKATU 7",
    "postal_code": "24100",
    "city": "SALO",
    "www": "http://www.fazerfoodco.fi/saloiotcampusravintolat",
    "admin": "FAZER FOOD SERVICES OY",
    "admin_www": "https://www.fazerfoodco.fi/",
    "lat": 60.3876751,
    "lng": 23.1061497
  },
  {
    "name": "AMICA/MÄNTYMÄEN RAVINTOKESKUS (0520)",
    "address": "LUOLAVUORENTIE 2",
    "postal_code": "20700",
    "city": "TURKU",
    "www": "http://www.amica.fi/mantymaki",
    "admin": "FAZER FOOD SERVICES OY",
    "admin_www": "https://www.fazerfoodco.fi/",
    "lat": 60.4394149,
    "lng": 22.275946
  },
  {
    "name": "ARKEA RAVINTOLA MAKUMESTA/KAHVILA MAKUPALA",
    "address": "ANNIKANPOLKU 9",
    "postal_code": "20610",
    "city": "TURKU",
    "www": "",
    "admin": "ARKEA OY",
    "admin_www": "",
    "lat": 60.44728019999999,
    "lng": 22.3585201
  },
  {
    "name": "ASSARIN ULLAKKO, KASVISRAVINTOLA BRYGGE",
    "address": "REHTORINPELLONKATU 4 A",
    "postal_code": "20500",
    "city": "TURKU",
    "www": "http://www.unica.fi",
    "admin": "UNICA OY",
    "admin_www": "http://www.unica.fi",
    "lat": 60.45436769999999,
    "lng": 22.287156
  },
  {
    "name": "AURIGA, PORT CENTER (FI319259)",
    "address": "JUHANA HERTTUAN PUISTOKATU 21",
    "postal_code": "20100",
    "city": "TURKU",
    "www": "http://www.sodexo.fi",
    "admin": "SODEXO OY",
    "admin_www": "http://www.sodexo.fi",
    "lat": 60.4396271,
    "lng": 22.2267736
  },
  {
    "name": "CAFÉ ARKEN",
    "address": "FABRIKSGATAN 2",
    "postal_code": "20500",
    "city": "TURKU",
    "www": "http://www.abo.fi/karen/index.php?page=matlistor",
    "admin": "KAFÉ GADOLINIA KB/ÅBO AKADEMIS STUDENTKÅR",
    "admin_www": "http://www.abo.fi/karen/index.php?page=matlistor",
    "lat": "",
    "lon": ""
  },
  {
    "name": "CAFÉ FÄNRIKEN",
    "address": "FÄNRIKSGATAN 3",
    "postal_code": "20500",
    "city": "TURKU",
    "www": "http://www.abo.fi/karen/index.php?page=matlistor",
    "admin": "KAFÉ GADOLINIA KB/ÅBO AKADEMIS STUDENTKÅR",
    "admin_www": "http://www.abo.fi/karen/index.php?page=matlistor",
    "lat": 55.60310879999999,
    "lng": 13.011902
  },
  {
    "name": "CAFÉ GADOLINIA",
    "address": "PORTHANSGATAN 3-5",
    "postal_code": "20500",
    "city": "TURKU",
    "www": "http://www.abo.fi/karen/index.php?page=matlistor",
    "admin": "KAFÉ GADOLINIA KB/ÅBO AKADEMIS STUDENTKÅR",
    "admin_www": "http://www.abo.fi/karen/index.php?page=matlistor",
    "lat": 60.1815582,
    "lng": 24.95071
  },
  {
    "name": "CAFÉ KÅREN",
    "address": "TAVASTGATAN 22",
    "postal_code": "20500",
    "city": "TURKU",
    "www": "http://www.abo.fi/karen/index.php?page=matlistor",
    "admin": "KAFÉ GADOLINIA KB/ÅBO AKADEMIS STUDENTKÅR",
    "admin_www": "http://www.abo.fi/karen/index.php?page=matlistor",
    "lat": 59.3197471,
    "lng": 18.0608235
  },
  {
    "name": "DELICA/DELI",
    "address": "ITÄINEN PITKÄKATU 4",
    "postal_code": "20520",
    "city": "TURKU",
    "www": "http://www.unica.fi",
    "admin": "UNICA OY",
    "admin_www": "http://www.unica.fi",
    "lat": 60.44866150000001,
    "lng": 22.2906429
  },
  {
    "name": "KAHVILA MUUSA",
    "address": "LINNANKATU 54",
    "postal_code": "20100",
    "city": "TURKU",
    "www": "",
    "admin": "ARKEA OY",
    "admin_www": "",
    "lat": 60.4404317,
    "lng": 22.2438505
  },
  {
    "name": "KASVISRAVINTOLA KEIDAS",
    "address": "UUDENMAANKATU 3",
    "postal_code": "20500",
    "city": "TURKU",
    "www": "",
    "admin": "TMI S. SARIAN",
    "admin_www": "",
    "lat": 60.44987459999999,
    "lng": 22.2780708
  },
  {
    "name": "MACCIAVELLI",
    "address": "ASSISTENTINKATU 5",
    "postal_code": "20500",
    "city": "TURKU",
    "www": "http://www.unica.fi",
    "admin": "UNICA OY",
    "admin_www": "http://www.unica.fi",
    "lat": 60.45800860000001,
    "lng": 22.285972
  },
  {
    "name": "MEDISIINA D/FLAVORIA",
    "address": "KIINAMYLLYNKATU 10",
    "postal_code": "20520",
    "city": "TURKU",
    "www": "",
    "admin": "SODEXO OY",
    "admin_www": "http://www.sodexo.fi",
    "lat": 60.4518214,
    "lng": 22.2923326
  },
  {
    "name": "OPISKELIJARAVINTOLA DATACITY (AMISTOTELES)",
    "address": "LEMMINKÄISENKATU 14-18 B",
    "postal_code": "20520",
    "city": "TURKU",
    "www": "http://www.turkuai.fi",
    "admin": "TURUN AMMATTI-INSTITUUTTI",
    "admin_www": "http://www.turkuai.fi",
    "lat": 60.44844579999999,
    "lng": 22.2942218
  },
  {
    "name": "RAVINTOLA DENTAL",
    "address": "LEMMINKÄISENKATU 2",
    "postal_code": "20520",
    "city": "TURKU",
    "www": "http://www.unica.fi",
    "admin": "UNICA OY",
    "admin_www": "http://www.unica.fi",
    "lat": 60.4499796,
    "lng": 22.2923575
  },
  {
    "name": "RAVINTOLA GALILEI",
    "address": "VESILINNANTIE 3",
    "postal_code": "20500",
    "city": "TURKU",
    "www": "http://www.unica.fi",
    "admin": "UNICA OY",
    "admin_www": "http://www.unica.fi",
    "lat": 60.4558079,
    "lng": 22.2856536
  },
  {
    "name": "RAVINTOLA LINUS",
    "address": "JOUKAHAISENKATU 3",
    "postal_code": "20500",
    "city": "TURKU",
    "www": "",
    "admin": "UNICA OY",
    "admin_www": "http://www.unica.fi",
    "lat": 60.44882500000001,
    "lng": 22.2966101
  },
  {
    "name": "RAVINTOLA MONTTU JA CAFé BISTRO",
    "address": "REHTORINPELLONKATU 3",
    "postal_code": "20500",
    "city": "TURKU",
    "www": "http://www.juvenes.fi",
    "admin": "JUVENES OY",
    "admin_www": "http://www.juvenes.fi",
    "lat": 60.4543532,
    "lng": 22.2877762
  },
  {
    "name": "RAVINTOLA NUTRITIO",
    "address": "RUISKATU 8",
    "postal_code": "20720",
    "city": "TURKU",
    "www": "http://www.unica.fi",
    "admin": "UNICA OY",
    "admin_www": "http://www.unica.fi",
    "lat": 60.4301207,
    "lng": 22.2962534
  },
  {
    "name": "RAVINTOLA OLD MILL (FI318478)",
    "address": "RUUKINKATU 2-4",
    "postal_code": "20540",
    "city": "TURKU",
    "www": "http://www.sodexo.fi",
    "admin": "SODEXO OY",
    "admin_www": "http://www.sodexo.fi",
    "lat": 60.45243910000001,
    "lng": 22.3006826
  },
  {
    "name": "RAVINTOLA SIGYN",
    "address": "LINNANKATU 60",
    "postal_code": "20100",
    "city": "TURKU",
    "www": "",
    "admin": "ARKEA OY",
    "admin_www": "",
    "lat": 60.4387139,
    "lng": 22.2396192
  },
  {
    "name": "RAVINTOLA WANHA TALLI",
    "address": "HARJATTULANTIE 80",
    "postal_code": "20960",
    "city": "TURKU",
    "www": "http://www.paasikiviopisto.net",
    "admin": "PAASIKIVIOPISTOYHDISTYS R.Y.",
    "admin_www": "http://www.paasikiviopisto.net",
    "lat": 60.3715845,
    "lng": 22.2903798
  },
  {
    "name": "SALON SAIRAALAN RAVINTOLA",
    "address": "SAIRAALANTIE 9, SALO",
    "postal_code": "24130",
    "city": "SALO",
    "www": "",
    "admin": "KAAREA OY",
    "admin_www": "",
    "lat": 60.3755075,
    "lng": 23.1305634
  },
  {
    "name": "T-HENKILÖSTÖRAVINTOLA SAVIRUUKKU",
    "address": "HÄMEENTIE 11, TURKU",
    "postal_code": "20520",
    "city": "TURKU",
    "www": "",
    "admin": "KAAREA OY",
    "admin_www": "",
    "lat": 60.45434170000001,
    "lng": 22.295716
  },
  {
    "name": "TEKNIKA/TURUN AMK (0509)",
    "address": "SEPÄNKATU 1",
    "postal_code": "20700",
    "city": "TURKU",
    "www": "http://www.amica.fi/teknika",
    "admin": "FAZER FOOD SERVICES OY",
    "admin_www": "https://www.fazerfoodco.fi/",
    "lat": 60.4442034,
    "lng": 22.2690367
  },
  {
    "name": "TOTTISALMI, TURUN YO-TERVEYSTALO",
    "address": "KIRKKOTIE 13",
    "postal_code": "20540",
    "city": "TURKU",
    "www": "http://www.unica.fi",
    "admin": "UNICA OY",
    "admin_www": "http://www.unica.fi",
    "lat": 60.45649539999999,
    "lng": 22.293189
  },
  {
    "name": "TURUN AMK/LEMMINKÄISENKATU (FI319182)",
    "address": "LEMMINKÄISENKATU 30",
    "postal_code": "20520",
    "city": "TURKU",
    "www": "http://www.sodexo.fi",
    "admin": "SODEXO OY",
    "admin_www": "http://www.sodexo.fi",
    "lat": 60.4472297,
    "lng": 22.2988536
  },
  {
    "name": "TURUNMAAN SAIRAALA",
    "address": "KASKENKATU 13, TURKU",
    "postal_code": "20700",
    "city": "TURKU",
    "www": "",
    "admin": "KAAREA OY",
    "admin_www": "",
    "lat": 60.4447874,
    "lng": 22.2747266
  },
  {
    "name": "U-HENKILÖSTÖRAVINTOLA",
    "address": "KIINAMYLLYNKATU 1-4, TURKU",
    "postal_code": "20500",
    "city": "TURKU",
    "www": "",
    "admin": "KAAREA OY",
    "admin_www": "",
    "lat": 60.45357449999999,
    "lng": 22.2861884
  },
  {
    "name": "VAKKA-SUOMEN SAIRAALAN RAVINTOLA",
    "address": "TERVEYSTIE 2, UUSIKAUPUNKI",
    "postal_code": "23500",
    "city": "UUSIKAUPUNKI",
    "www": "",
    "admin": "KAAREA OY",
    "admin_www": "",
    "lat": 60.79564659999999,
    "lng": 21.422469
  }
]